     3.02           OBSERVATION DATA    M                   RINEX VERSION / TYPE
HIVE                geosystems.aero     18-JAN-22 05:28     PGM / RUN BY / DATE 
AKSH                                                        MARKER NAME         
834                                                         MARKER NUMBER       
                                                            MARKER TYPE         
geosystems.aero     Industrial Geodetic Systems             OBSERVER / AGENCY   
unknown             GEODETIKA GRC220    unknown             REC # / TYPE / VERS 
                    HXCCSX601A      NONE                    ANT # / TYPE        
  3202690.5884  3477599.6295  4269082.6240                  APPROX POSITION XYZ 
        0.0000        0.0000        0.0000                  ANTENNA: DELTA H/E/N
G  9   C1C L1C S1C C2W L2W S2W C5Q L5Q S5Q                  SYS / # / OBS TYPES 
R  6   C1C L1C S1C C2P L2P S2P                              SYS / # / OBS TYPES 
C  6   C1I L1I S1I C7I L7I S7I                              SYS / # / OBS TYPES 
    60.000                                                  INTERVAL            
  2021    11    07    15    42   00.0000000     GPS         TIME OF FIRST OBS   
  2021    11    07    23    59   00.0000000     GPS         TIME OF LAST OBS    
 C1C    0.000 C1P    0.000 C2C    0.000 C2P    0.000        GLONASS COD/PHS/BIS 
    18                                                      LEAP SECONDS        
    53                                                      # OF SATELLITES     
   G01   111   111   111   109   109   109   111   111   111PRN / # OF OBS      
   G02   351   351   351   349   349   349     0     0     0PRN / # OF OBS      
   G05   191   191   191   191   191   191     0     0     0PRN / # OF OBS      
   G06   282   282   282   282   282   282   282   282   282PRN / # OF OBS      
   G07    49    49    49    49    49    49     0     0     0PRN / # OF OBS      
   G11   330   330   330   330   330   330   330   330   330PRN / # OF OBS      
   G12   394   394   394   394   394   394     0     0     0PRN / # OF OBS      
   G13   195   195   195   192   192   192     0     0     0PRN / # OF OBS      
   G14   192   192   192   191   191   191   192   192   192PRN / # OF OBS      
   G15   205   205   205   205   205   205     0     0     0PRN / # OF OBS      
   G17   259   259   259   259   259   259     0     0     0PRN / # OF OBS      
   G18   123   123   123   123   123   123   123   123   123PRN / # OF OBS      
   G19   314   314   314   313   313   313     0     0     0PRN / # OF OBS      
   G20   218   218   218   218   218   218     0     0     0PRN / # OF OBS      
   G21    70    70    70    65    65    65     0     0     0PRN / # OF OBS      
   G23    34    34    34    34    34    34    34    34    34PRN / # OF OBS      
   G24   342   342   342   342   342   342   342   342   342PRN / # OF OBS      
   G25   303   303   303   303   303   303   303   303   303PRN / # OF OBS      
   G26    86    86    86    86    86    86    86    86    86PRN / # OF OBS      
   G28   250   250   250   250   250   250     0     0     0PRN / # OF OBS      
   G29   250   250   250   250   250   250     0     0     0PRN / # OF OBS      
   G30   134   134   134   134   134   134   134   134   134PRN / # OF OBS      
   G31   181   181   181   181   181   181     0     0     0PRN / # OF OBS      
   G32    89    89    89    89    89    89    89    89    89PRN / # OF OBS      
   R01   190   190   190   190   190   190                  PRN / # OF OBS      
   R02   114   114   114   114   114   114                  PRN / # OF OBS      
   R06   102   102   102     0     0     0                  PRN / # OF OBS      
   R07   179   179   179   179   179   179                  PRN / # OF OBS      
   R08   194   194   194   194   194   194                  PRN / # OF OBS      
   R09   161   161   161   161   161   161                  PRN / # OF OBS      
   R10   277   277   277     0     0     0                  PRN / # OF OBS      
   R12   311   311   311   311   311   311                  PRN / # OF OBS      
   R13   206   206   206   206   206   206                  PRN / # OF OBS      
   R14   113   113   113   113   113   113                  PRN / # OF OBS      
   R15    15    15    15    15    15    15                  PRN / # OF OBS      
   R16    38    38    38    36    36    36                  PRN / # OF OBS      
   R18    66    66    66    66    66    66                  PRN / # OF OBS      
   R19   151   151   151   151   151   151                  PRN / # OF OBS      
   R20   252   252   252   252   252   252                  PRN / # OF OBS      
   R21   310   310   310   310   310   310                  PRN / # OF OBS      
   R22   305   305   305   305   305   305                  PRN / # OF OBS      
   R23   206   206   206     0     0     0                  PRN / # OF OBS      
   R24   112   112   112   112   112   112                  PRN / # OF OBS      
   C02   495   495   495   495   495   495                  PRN / # OF OBS      
   C05   495   495   495   495   495   495                  PRN / # OF OBS      
   C07   314   314   314   314   314   314                  PRN / # OF OBS      
   C08   384   384   384   384   384   384                  PRN / # OF OBS      
   C09    38    38    38    38    38    38                  PRN / # OF OBS      
   C10   484   484   484   484   484   484                  PRN / # OF OBS      
   C11   111   111   111   111   111   111                  PRN / # OF OBS      
   C12   246   246   246   246   246   246                  PRN / # OF OBS      
   C13   385   385   385   385   385   385                  PRN / # OF OBS      
   C14    72    72    72    72    72    72                  PRN / # OF OBS      
                                                            END OF HEADER       
> 2021 11 07 15 42  0.0000000  0 23                     
G05  24499582.430 6 128746194.284 6        39.000    24499575.801 6 100321690.231 6        40.000                                                  
G07  22556553.423 7 118535564.062 7        46.000    22556544.810 7  92365373.936 7        44.000                                                  
G13  20804795.545 8 109329973.777 8        50.000    20804787.254 7  85192161.845 7        47.000                                                  
G14  20244950.568 8 106388013.896 8        51.000    20244942.491 8  82899760.072 8        48.000    20244946.226 9  79445628.477 9        56.000  
G15  22601676.030 7 118772627.246 7        47.000    22601667.131 7  92550078.180 7        45.000                                                  
G17  21818040.963 8 114654602.281 8        48.000    21818033.012 7  89341231.525 7        46.000                                                  
G19  23906650.812 7 125630309.871 7        42.000    23906641.306 6  97893711.588 6        41.000                                                  
G28  20562418.957 8 108056320.891 8        49.000    20562409.933 7  84199725.696 7        46.000                                                  
G30  20895898.901 8 109808776.569 8        50.000    20895892.593 7  85565296.911 7        47.000    20895892.843 8  82000080.927 8        53.000  
R01  23841081.308 6 127444243.325 6        41.000    23841079.968 6  99123298.882 6        40.000  
R06  23687524.932 6 126401209.243 6        36.000                                                  
R07  20647177.933 8 110525998.128 8        53.000    20647173.305 8  85964663.982 8        49.000  
R08  20948767.890 8 112179725.686 8        48.000    20948762.297 8  87250887.121 8        49.000  
R09  19769355.890 9 105567359.829 9        57.000    19769352.709 9  82107972.436 9        54.000  
R10  21010890.352 8 111999909.089 8        53.000                                                  
R16  22255340.127 7 118884175.523 7        43.000    22255334.642 5  92465451.780 5        35.000  
R18  22110066.079 8 118025040.727 8        48.000    22110064.756 8  91797286.036 8        48.000  
R19  21834114.525 6 116797791.523 6        39.000    21834111.630 7  90842728.800 7        44.000  
C02                                                  38724649.395 7 155928164.199 7        47.000  
C05                                                  37838445.118 8 152359747.548 8        48.000  
C07                                                  37982728.401 8 152940808.197 8        48.000  
C09                                                  39847836.121 7 160450722.374 7        44.000  
C10                                                  37064942.181 8 149245275.202 8        51.000  
> 2021 11 07 15 43  0.0000000  0 23                     
G05  24528821.620 6 128899850.663 6        39.000    24528815.419 6 100441422.349 6        40.000                                                  
G07  22582891.023 7 118673969.758 7        45.000    22582881.981 7  92473222.522 7        43.000                                                  
G13  20791166.538 8 109258354.373 8        50.000    20791158.354 7  85136354.524 7        47.000                                                  
G14  20247313.443 8 106400432.241 8        50.000    20247306.009 7  82909436.688 7        47.000    20247309.654 9  79454901.908 9        56.000  
G15  22576161.942 8 118638550.845 8        48.000    22576154.562 7  92445603.067 7        45.000                                                  
G17  21788669.186 8 114500253.108 8        49.000    21788662.181 7  89220959.493 7        46.000                                                  
G19  23862946.738 7 125400641.985 7        42.000    23862937.035 6  97714749.614 6        40.000                                                  
G28  20555176.213 8 108018260.373 8        49.000    20555167.510 7  84170068.170 7        46.000                                                  
G30  20909105.377 8 109878177.838 8        50.000    20909099.141 7  85619375.818 7        47.000    20909099.802 8  82051906.543 8        53.000  
R01  23800740.738 6 127228600.559 6        41.000    23800739.452 6  98955576.798 6        40.000  
R06  23738431.866 6 126672858.406 6        36.000                                                  
R07  20677985.862 8 110690915.395 8        52.000    20677981.698 8  86092932.951 8        49.000  
R08  20936699.938 8 112115101.565 8        48.000    20936694.095 8  87200623.940 8        50.000  
R09  19775990.033 9 105602785.599 9        57.000    19775986.763 8  82135525.834 8        53.000  
R10  20988781.957 8 111882058.994 8        52.000                                                  
R16  22286668.831 7 119051528.333 7        45.000    22286663.435 6  92595615.042 6        36.000  
R18  22119030.682 8 118072894.037 8        49.000    22119029.395 8  91834505.312 8        48.000  
R19  21805587.040 6 116645188.826 6        40.000    21805583.860 7  90724037.830 7        46.000  
C02                                                  38724567.590 7 155927834.971 7        47.000  
C05                                                  37838424.533 8 152359665.071 8        48.000  
C07                                                  37990597.436 8 152972491.989 8        49.000  
C09                                                  39860599.910 7 160502117.425 7        43.000  
C10                                                  37069539.916 8 149263785.660 8        51.000  
> 2021 11 07 15 44  0.0000000  0 23                     
G05  24558214.411 7 129054307.912 7        43.000    24558208.032 7 100561778.623 7        42.000                                                  
G07  22609404.114 7 118813297.152 7        45.000    22609395.841 7  92581789.291 7        43.000                                                  
G13  20777954.129 8 109188922.574 8        50.000    20777946.159 7  85082251.828 7        47.000                                                  
G14  20249985.058 8 106414471.790 8        51.000    20249977.357 8  82920376.608 8        48.000    20249981.288 9  79465385.991 9        56.000  
G15  22551011.471 7 118506384.491 7        47.000    22551002.447 7  92342616.293 7        45.000                                                  
G17  21759594.105 7 114347461.168 7        47.000    21759586.636 7  89101900.898 7        45.000                                                  
G19  23819301.953 7 125171287.198 7        42.000    23819291.625 6  97536031.601 6        40.000                                                  
G28  20548227.057 8 107981741.233 8        49.000    20548217.979 7  84141611.718 7        46.000                                                  
G30  20922558.268 8 109948872.017 8        50.000    20922552.139 7  85674462.186 7        47.000    20922552.264 8  82104697.642 8        53.000  
R01  23760701.547 7 127014568.467 7        42.000    23760700.332 6  98789107.439 6        39.000  
R06  23789332.296 6 126944472.529 6        37.000                                                  
R07  20709259.833 8 110858327.646 8        52.000    20709255.616 8  86223142.415 8        49.000  
R08  20925227.257 8 112053665.720 8        48.000    20925221.521 8  87152840.516 8        49.000  
R09  19782837.228 9 105639348.217 9        57.000    19782833.332 8  82163963.447 8        53.000  
R10  20966847.803 8 111765137.744 8        52.000                                                  
R16  22318051.982 7 119219171.598 7        45.000    22318046.550 6  92726004.208 6        36.000  
R18  22128591.163 8 118123928.172 8        50.000    22128589.823 7  91874198.539 7        47.000  
R19  21777514.144 6 116495017.686 6        41.000    21777510.981 7  90607238.087 7        46.000  
C02                                                  38724483.999 7 155927498.872 7        47.000  
C05                                                  37838401.071 8 152359570.123 8        48.000  
C07                                                  37998481.035 8 153004234.805 8        48.000  
C09                                                  39873423.329 7 160553754.264 7        43.000  
C10                                                  37074161.167 8 149282396.916 8        49.000  
> 2021 11 07 15 45  0.0000000  0 23                     
G05  24587754.801 6 129209541.832 6        41.000    24587748.064 6 100682740.106 6        41.000                                                  
G07  22636092.322 7 118953543.201 7        45.000    22636083.762 7  92691071.911 7        44.000                                                  
G13  20765160.391 8 109121691.423 8        50.000    20765152.350 7  85029863.918 7        47.000                                                  
G14  20252963.860 8 106430123.961 8        51.000    20252955.658 8  82932573.121 8        48.000    20252959.947 9  79477074.316 9        56.000  
G15  22526227.547 8 118376145.480 8        48.000    22526219.970 7  92241131.384 7        46.000                                                  
G17  21730818.706 7 114196245.916 7        46.000    21730810.987 7  88984070.856 7        45.000                                                  
G19  23775720.604 7 124942267.220 7        42.000    23775710.347 7  97357574.537 7        42.000                                                  
G28  20541569.523 8 107946757.173 8        49.000    20541560.696 7  84114351.435 7        46.000                                                  
G30  20936256.732 8 110020859.583 8        50.000    20936250.907 7  85730556.377 7        47.000    20936250.961 8  82158454.566 8        53.000  
R01  23720969.721 7 126802178.811 7        43.000    23720968.452 6  98623915.501 6        40.000  
R06  23840220.468 5 127216020.731 5        35.000                                                  
R07  20740994.074 8 111028203.458 8        52.000    20740989.732 8  86355268.004 8        49.000  
R08  20914352.098 8 111995429.786 8        49.000    20914346.326 8  87107545.878 8        49.000  
R09  19789896.153 9 105677042.141 9        57.000    19789892.258 8  82193280.941 8        53.000  
R10  20945087.943 8 111649145.021 8        52.000                                                  
R16  22349488.543 7 119387100.411 7        45.000    22349483.343 6  92856615.479 6        36.000  
R18  22138746.236 8 118178135.514 8        49.000    22138744.663 7  91916359.838 7        47.000  
R19  21749901.483 6 116347308.521 6        40.000    21749898.427 7  90492353.245 7        47.000  
C02                                                  38724398.817 7 155927155.480 7        47.000  
C05                                                  37838374.303 8 152359462.378 8        48.000  
C07                                                  38006377.463 7 153036034.299 7        47.000  
C09                                                  39886307.162 7 160605631.729 7        44.000  
C10                                                  37078807.524 8 149301106.248 8        50.000  
> 2021 11 07 15 46  0.0000000  0 24                     
G05  24617438.393 6 129365531.101 6        40.000    24617431.907 6 100804290.103 6        40.000                                                  
G07  22662955.574 7 119094710.661 7        45.000    22662946.836 7  92801072.506 7        44.000                                                  
G13  20752788.558 8 109056677.301 8        49.000    20752780.660 7  84979203.561 7        47.000                                                  
G14  20256248.347 8 106447384.763 8        50.000    20256240.163 7  82946023.114 7        47.000    20256244.488 9  79489963.895 9        56.000  
G15  22501815.102 8 118247855.075 8        48.000    22501807.400 7  92141164.848 7        46.000                                                  
G17  21702347.456 8 114046630.492 8        48.000    21702339.593 7  88867487.428 7        46.000                                                  
G19  23732208.603 7 124713609.080 7        42.000    23732198.186 6  97179399.373 6        41.000                                                  
G21  24956135.556 6 131145368.431 6        37.000    24956126.246 5 102191170.060 5        35.000                                                  
G28  20535203.898 8 107913306.844 8        49.000    20535195.143 7  84088286.266 7        46.000                                                  
G30  20950202.593 8 110094145.616 8        50.000    20950196.679 7  85787662.352 7        47.000    20950196.875 8  82213181.118 8        52.000  
R01  23681551.639 6 126591466.737 6        41.000    23681550.442 6  98460028.337 6        40.000  
R06  23891091.253 6 127487476.328 6        36.000                                                  
R07  20773183.600 8 111200516.433 8        53.000    20773179.151 8  86489289.189 8        49.000  
R08  20904077.374 8 111940408.780 8        49.000    20904071.513 8  87064751.739 8        49.000  
R09  19797166.773 9 105715866.828 9        57.000    19797162.859 8  82223477.901 8        52.000  
R10  20923503.039 8 111534085.312 8        52.000                                                  
R16  22380978.693 7 119555314.712 7        46.000    22380973.547 5  92987448.785 5        35.000  
R18  22149495.293 8 118235512.538 8        49.000    22149493.434 7  91960986.394 7        47.000  
R19  21722755.738 6 116202096.912 6        39.000    21722752.951 7  90379410.922 7        45.000  
C02                                                  38724312.439 7 155926808.060 7        47.000  
C05                                                  37838344.998 8 152359344.902 8        48.000  
C07                                                  38014289.331 7 153067891.730 7        47.000  
C09                                                  39899252.304 7 160657752.208 7        45.000  
C10                                                  37083479.112 8 149319914.825 8        50.000  
> 2021 11 07 15 48  0.0000000  1 24                     
G05  24677217.279 7 129679668.162 7        42.000    24677210.025 6 101049072.096 6        41.000                                                  
G07  22717204.606 7 119379791.982 7        45.000    22717196.547 7  93023213.736 7        43.000                                                  
G13  20729318.401 8 108933340.793 8        49.000    20729310.378 7  84883097.203 7        47.000                                                  
G14  20263728.017 8 106486691.024 8        50.000    20263720.244 7  82976651.368 7        47.000    20263724.103 9  79519315.974 9        56.000  
G15  22454113.763 7 117997181.641 7        47.000    22454105.883 7  91945834.950 7        45.000                                                  
G17  21646331.893 8 113752265.357 8        48.000    21646323.637 7  88638112.066 7        46.000                                                  
G19  23645405.697 7 124257459.846 7        43.000    23645396.226 7  96823958.484 7        42.000                                                  
G21  24944434.812 6 131083883.203 6        39.000    24944425.896 6 102143250.569 6        37.000                                                  
G28  20523342.727 8 107850975.163 8        49.000    20523334.239 7  84039716.145 7        46.000                                                  
G30  20978835.076 8 110244608.293 8        50.000    20978828.840 7  85904905.972 7        47.000    20978828.554 8  82325539.594 8        52.000  
R01  23603679.312 7 126175194.836 7        42.000    23603678.401 6  98136261.401 6        39.000  
R06  23992756.952 6 128029981.577 6        36.000                                                  
R07  20838903.615 8 111552319.886 8        52.000    20838898.897 8  86762913.973 8        50.000  
R08  20885334.859 8 111840042.737 8        48.000    20885328.855 8  86986689.267 8        49.000  
R09  19812338.073 9 105796880.821 9        57.000    19812334.303 8  82286488.798 8        53.000  
R10  20880856.918 8 111306758.082 8        53.000                                                  
R16  22444114.794 7 119892574.395 7        44.000    22444109.665 6  93249761.788 6        36.000  
R18  22172765.389 8 118359730.517 8        50.000    22172763.459 7  92057600.396 7        46.000  
R19  21669886.785 6 115919284.695 6        40.000    21669884.016 7  90159445.942 7        45.000  
C02                                                  38724135.267 7 155926094.318 7        47.000  
C05                                                  37838277.846 8 152359074.598 8        48.000  
C07                                                  38030153.682 8 153131766.200 8        48.000  
C09                                                  39925319.045 7 160762712.653 7        45.000  
C10                                                  37092890.709 8 149357815.476 8        49.000  
> 2021 11 07 15 49  0.0000000  0 24                     
G05  24707302.138 6 129837766.274 6        39.000    24707295.062 6 101172265.399 6        40.000                                                  
G07  22744589.598 7 119523701.966 7        45.000    22744581.611 7  93135351.342 7        44.000                                                  
G13  20718224.436 8 108875041.825 8        50.000    20718216.895 7  84837669.429 7        47.000                                                  
G14  20267920.018 8 106508719.198 8        50.000    20267912.030 7  82993816.188 7        47.000    20267916.015 9  79535765.599 9        56.000  
G15  22430830.229 7 117874832.009 7        47.000    22430823.135 7  91850497.620 7        45.000                                                  
G17  21618794.084 8 113607553.089 8        48.000    21618786.061 7  88525349.269 7        46.000                                                  
G19  23602124.529 7 124030014.085 7        43.000    23602114.665 7  96646728.055 7        42.000                                                  
G21  24939080.199 6 131055743.043 6        39.000    24939071.086 6 102121323.123 6        37.000                                                  
G28  20517844.679 8 107822081.193 8        49.000    20517836.173 7  84017201.373 7        46.000                                                  
G30  20993521.555 8 110321786.006 8        50.000    20993515.229 7  85965044.433 7        47.000    20993515.425 8  82383172.289 8        52.000  
R01  23565236.683 7 125969697.468 7        43.000    23565236.218 6  97976430.144 6        38.000  
R06  24043540.287 5 128300970.941 5        33.000                                                  
R07  20872421.953 8 111731746.329 8        52.000    20872417.361 8  86902467.820 8        49.000  
R08  20876870.321 8 111794716.051 8        48.000    20876864.532 8  86951435.197 8        49.000  
R09  19820237.057 9 105839060.920 9        57.000    19820233.233 8  82319295.545 8        52.000  
R10  20859795.558 8 111194490.300 8        53.000                                                  
R16  22475758.779 7 120061611.156 7        45.000    22475753.757 6  93381234.785 6        36.000  
R18  22185283.318 8 118426551.649 8        49.000    22185280.995 7  92109572.397 7        47.000  
R19  21644175.173 6 115781744.693 6        40.000    21644172.332 7  90052470.426 7        45.000  
C02                                                  38724044.117 7 155925727.697 7        47.000  
C05                                                  37838239.928 8 152358921.375 8        48.000  
C07                                                  38038103.646 8 153163779.095 8        48.000  
C09                                                  39938441.698 7 160815550.617 7        45.000  
C10                                                  37097631.307 8 149376903.282 8        50.000  
> 2021 11 07 15 50  0.0000000  0 23                     
G05  24737512.759 6 129996524.793 6        38.000    24737505.916 6 101295973.244 6        39.000                                                  
G07  22772149.636 7 119668528.701 7        44.000    22772141.130 7  93248203.337 7        43.000                                                  
G13  20707562.490 8 108819011.502 8        51.000    20707554.056 8  84794009.432 8        48.000                                                  
G14  20272412.040 8 106532326.554 8        50.000    20272404.428 7  83012211.535 7        47.000    20272408.198 9  79553394.475 9        56.000  
G15  22407933.060 7 117754503.396 7        47.000    22407925.501 7  91756735.078 7        45.000                                                  
G17  21591575.774 8 113464519.660 8        48.000    21591567.733 7  88413894.658 7        46.000                                                  
G19  23558930.061 7 123803025.916 7        44.000    23558920.555 7  96469854.169 7        43.000                                                  
G21  24934059.396 6 131029358.387 6        37.000    24934049.908 6 102100763.633 6        36.000                                                  
G28  20512634.518 8 107794700.943 8        49.000    20512625.620 7  83995866.127 7        46.000                                                  
G30  21008456.538 8 110400269.364 8        49.000    21008450.033 7  86026200.281 7        47.000    21008450.248 8  82441779.978 8        52.000  
R01  23527132.385 7 125766008.237 7        43.000    23527131.706 6  97818005.212 6        38.000  
R07  20906372.793 8 111913486.817 8        52.000    20906368.451 8  87043821.491 8        49.000  
R08  20869013.705 8 111752645.155 8        49.000    20869008.183 8  86918713.363 8        48.000  
R09  19828345.126 9 105882357.596 9        56.000    19828341.052 8  82352970.716 8        52.000  
R10  20838910.727 8 111083161.698 8        53.000                                                  
R16  22507454.190 7 120230921.736 7        45.000    22507449.044 6  93512920.713 6        37.000  
R18  22198388.478 8 118496507.730 8        48.000    22198386.173 7  92163982.689 7        45.000  
R19  21618953.976 6 115646829.250 6        40.000    21618951.028 7  89947536.207 7        45.000  
C02                                                  38723952.825 7 155925360.178 7        47.000  
C05                                                  37838200.009 8 152358761.603 8        48.000  
C07                                                  38046066.779 8 153195845.241 8        48.000  
C09                                                  39951624.070 7 160868631.470 7        43.000  
C10                                                  37102395.635 8 149396085.432 8        50.000  
> 2021 11 07 15 51  0.0000000  0 23                     
G05  24767841.620 6 130155905.744 6        41.000    24767835.455 6 101420166.156 6        41.000                                                  
G07  22799880.876 7 119814257.647 7        44.000    22799872.942 7  93361758.353 7        43.000                                                  
G13  20697331.831 8 108765248.258 8        50.000    20697323.039 7  84752116.006 7        47.000                                                  
G14  20277200.724 8 106557491.926 8        50.000    20277193.469 7  83031820.936 7        47.000    20277196.882 9  79572186.809 9        56.000  
G15  22385420.932 8 117636200.149 8        49.000    22385413.606 7  91664550.753 7        46.000                                                  
G17  21564677.480 8 113323169.883 8        48.000    21564669.600 7  88303752.045 7        45.000                                                  
G19  23515824.492 7 123576504.155 7        44.000    23515814.628 7  96293343.747 7        43.000                                                  
G21  24929371.798 5 131004725.600 5        34.000    24929362.077 5 102081569.441 5        33.000                                                  
G28  20507708.511 8 107768815.543 8        48.000    20507699.612 7  83975695.710 7        46.000                                                  
G30  21023637.291 8 110480046.429 8        50.000    21023631.412 7  86088364.227 7        47.000    21023631.180 8  82501353.749 8        52.000  
R01  23489369.779 7 125564145.286 7        43.000    23489368.849 6  97661000.704 6        40.000  
R07  20940747.343 8 112097496.236 8        52.000    20940742.947 8  87186939.870 8        48.000  
R08  20861764.242 8 111713824.492 8        49.000    20861758.578 8  86888519.528 8        48.000  
R09  19836659.047 9 105926754.004 9        56.000    19836654.794 8  82387501.262 8        53.000  
R10  20818199.493 8 110972759.065 8        53.000                                                  
R16  22539197.777 7 120400489.139 7        45.000    22539192.381 6  93644806.392 6        36.000  
R18  22212076.257 8 118569574.297 8        48.000    22212073.844 7  92220812.269 7        45.000  
R19  21594226.769 6 115514555.223 6        41.000    21594223.695 7  89844656.468 7        45.000  
C02                                                  38723858.869 7 155924982.072 7        47.000  
C05                                                  37838156.337 8 152358585.707 8        48.000  
C07                                                  38054041.009 8 153227953.229 8        49.000  
C09                                                  39964864.230 7 160921944.633 7        45.000  
C10                                                  37107179.905 8 149415350.546 8        49.000  
> 2021 11 07 15 52  0.0000000  0 23                     
G05  24798286.915 6 130315893.099 6        40.000    24798280.267 6 101544831.517 6        40.000                                                  
G07  22827784.499 7 119960894.626 7        44.000    22827776.583 7  93476020.904 7        43.000                                                  
G13  20687535.818 8 108713771.421 8        50.000    20687527.402 7  84712004.176 7        47.000                                                  
G14  20282285.801 8 106584214.935 8        50.000    20282278.761 7  83052644.060 7        47.000    20282281.906 9  79592142.308 9        56.000  
G15  22363299.100 7 117519946.109 7        47.000    22363291.202 7  91573963.177 7        45.000                                                  
G17  21538105.350 7 113183530.601 7        47.000    21538097.362 7  88194942.227 7        45.000                                                  
G19  23472813.807 7 123350480.898 7        44.000    23472803.872 7  96117221.751 7        42.000                                                  
G21  24925020.637 5 130981861.572 5        32.000                                                                                                  
G28  20503067.104 8 107744426.503 8        48.000    20503058.348 7  83956691.273 7        46.000                                                  
G30  21039066.299 8 110561126.058 8        50.000    21039060.402 7  86151543.145 7        47.000    21039060.188 8  82561900.216 8        52.000  
R01  23451956.279 7 125364148.631 7        43.000    23451955.332 6  97505447.776 6        40.000  
R07  20975541.136 8 112283750.275 8        52.000    20975536.687 8  87331804.078 8        49.000  
R08  20855124.882 8 111678270.443 8        50.000    20855118.931 8  86860866.349 8        49.000  
R09  19845179.729 9 105972254.258 9        57.000    19845175.637 8  82422890.332 8        53.000  
R10  20797663.733 8 110863291.401 8        53.000                                                  
R16  22570990.343 7 120570318.915 7        44.000    22570984.875 5  93776896.186 5        34.000  
R18  22226346.280 8 118645747.916 8        48.000    22226343.492 7  92280058.457 7        46.000  
R19  21570000.376 6 115384960.278 6        40.000    21569997.178 7  89743860.428 7        45.000  
C02                                                  38723763.878 7 155924599.805 7        47.000  
C05                                                  37838110.378 8 152358400.082 8        48.000  
C07                                                  38062027.569 8 153260107.517 8        49.000  
C09                                                  39978163.661 7 160975495.660 7        44.000  
C10                                                  37111985.779 8 149434702.935 8        50.000  
> 2021 11 07 15 53  0.0000000  0 23                     
G05  24828841.336 6 130476459.123 6        40.000    24828834.867 6 101669947.850 6        40.000                                                  
G07  22855860.415 7 120108434.033 7        44.000    22855852.928 7  93590986.664 7        43.000                                                  
G13  20678176.417 8 108664587.589 8        50.000    20678168.001 7  84673679.122 7        47.000                                                  
G14  20287664.877 8 106612483.336 8        50.000    20287658.016 7  83074671.390 7        47.000    20287660.785 9  79613251.837 9        55.000  
G15  22341567.991 7 117405754.346 7        47.000    22341561.433 7  91484982.620 7        45.000                                                  
G17  21511860.419 8 113045615.824 8        49.000    21511852.753 7  88087476.206 7        46.000                                                  
G19  23429901.813 7 123124976.195 7        44.000    23429891.842 7  95941503.826 7        43.000                                                  
G21  24921007.058 6 130960772.807 6        38.000    24920999.607 5 102047328.594 5        32.000                                                  
G28  20498708.831 8 107721524.204 8        49.000    20498699.700 7  83938845.339 7        46.000                                                  
G30  21054742.435 8 110643505.233 8        49.000    21054736.146 7  86215734.676 7        47.000    21054736.503 8  82623417.100 8        52.000  
R01  23414897.141 7 125166045.673 7        44.000    23414895.551 6  97351367.742 6        37.000  
R07  21010747.614 8 112472212.482 8        52.000    21010742.968 8  87478385.767 8        49.000  
R08  20849095.998 8 111645984.836 8        49.000    20849089.458 8  86835755.319 8        49.000  
R09  19853905.745 9 106018850.501 9        56.000    19853901.725 8  82459131.853 8        53.000  
R10  20777302.892 8 110754756.302 8        53.000                                                  
R16  22602830.565 7 120740403.012 7        44.000    22602824.954 5  93909183.816 5        32.000  
R18  22241195.152 7 118725012.726 7        47.000    22241192.507 8  92341708.862 8        48.000  
R19  21546279.445 6 115258069.505 6        40.000    21546275.961 7  89645167.674 7        46.000  
C02                                                  38723667.313 7 155924210.720 7        47.000  
C05                                                  37838061.274 8 152358202.086 8        48.000  
C07                                                  38070023.331 8 153292303.671 8        48.000  
C09                                                  39991521.256 7 161029281.136 7        43.000  
C10                                                  37116813.453 8 149454137.948 8        51.000  
> 2021 11 07 15 54  0.0000000  0 23                     
G05  24859501.559 6 130637580.839 6        41.000    24859495.645 6 101795497.122 6        40.000                                                  
G07  22884107.803 7 120256874.359 7        44.000    22884100.155 7  93706654.409 7        43.000                                                  
G13  20669255.575 8 108617709.124 8        50.000    20669247.534 7  84637150.434 7        47.000                                                  
G14  20293336.880 8 106642289.729 8        50.000    20293329.679 7  83097897.149 7        47.000    20293332.592 9  79635509.862 9        55.000  
G15  22320232.807 7 117293642.127 7        47.000    22320226.338 7  91397622.454 7        45.000                                                  
G17  21485948.656 8 112909444.732 8        48.000    21485940.668 7  87981368.898 7        46.000                                                  
G19  23387092.763 7 122900013.668 7        44.000    23387083.238 7  95766208.416 7        43.000                                                  
G21  24917333.562 6 130941467.024 6        37.000    24917323.859 5 102032276.191 5        33.000                                                  
G28  20494632.621 8 107700103.276 8        49.000    20494623.597 7  83922153.719 7        46.000                                                  
G30  21070666.254 8 110727185.875 8        50.000    21070659.679 7  86280940.359 7        47.000    21070660.358 8  82685905.876 8        52.000  
R01  23378198.278 7 124969868.855 7        42.000    23378196.544 6  97198785.789 6        39.000  
R07  21046360.470 8 112662850.790 8        51.000    21046355.949 8  87626659.953 8        49.000  
R08  20843678.611 8 111616975.167 8        50.000    20843672.357 8  86813192.257 8        49.000  
R09  19862836.397 9 106066540.432 9        56.000    19862832.609 8  82496223.998 8        53.000  
R10  20757117.365 8 110647156.210 8        53.000                                                  
R16  22634718.230 7 120910741.082 7        44.000    22634712.529 6  94041669.031 6        36.000  
R18  22256620.836 8 118807357.396 8        49.000    22256618.602 7  92405754.694 7        47.000  
R19  21523069.728 6 115133912.823 6        40.000    21523066.280 7  89548601.391 7        47.000  
C02                                                  38723569.302 7 155923816.167 7        47.000  
C05                                                  37838009.382 8 152357992.967 8        48.000  
C07                                                  38078028.421 8 153324541.108 8        48.000  
C09                                                  40004937.211 7 161083301.086 7        45.000  
C10                                                  37121660.193 8 149473655.143 8        49.000  
> 2021 11 07 15 55  0.0000000  0 23                     
G05  24890263.047 6 130799230.526 6        41.000    24890255.863 6 101921457.945 6        41.000                                                  
G07  22912526.321 7 120406211.646 7        44.000    22912518.084 7  93823021.104 7        43.000                                                  
G13  20660775.169 8 108573144.568 8        50.000    20660766.896 7  84602424.818 7        47.000                                                  
G14  20299299.809 8 106673624.016 8        50.000    20299292.108 7  83122313.492 7        47.000    20299295.646 9  79658908.853 9        55.000  
G15  22299297.245 7 117183623.370 7        47.000    22299290.526 7  91311893.575 7        45.000                                                  
G17  21460370.651 8 112775033.261 8        49.000    21460363.181 7  87876632.700 7        46.000                                                  
G19  23344391.248 7 122675615.370 7        44.000    23344381.795 7  95591352.662 7        43.000                                                  
G21  24914000.811 6 130923953.246 6        37.000    24913991.983 5 102018632.119 5        32.000                                                  
G28  20490836.901 8 107680155.615 8        49.000    20490827.627 7  83906610.095 7        46.000                                                  
G30  21086837.917 8 110812167.087 8        50.000    21086831.180 7  86347159.481 7        47.000    21086831.055 8  82749365.870 8        52.000  
R01  23341865.032 7 124775647.115 7        42.000    23341863.371 6  97047724.467 6        39.000  
R07  21082373.359 8 112855630.499 8        51.000    21082368.928 8  87776599.666 8        49.000  
R08  20838873.684 8 111591245.140 8        49.000    20838867.519 8  86793180.028 8        48.000  
R09  19871970.970 9 106115318.807 9        56.000    19871967.218 9  82534162.707 9        54.000  
R10  20737106.936 8 110540489.605 8        52.000                                                  
R16  22666652.586 7 121081327.662 7        45.000    22666646.779 6  94174347.375 6        36.000  
R18  22272620.884 8 118892766.714 8        49.000    22272618.722 7  92472184.186 7        46.000  
R19  21500376.016 6 115012516.797 6        41.000    21500372.764 7  89454182.295 7        46.000  
C02                                                  38723469.682 7 155923415.190 7        47.000  
C05                                                  37837954.399 8 152357771.823 8        48.000  
C07                                                  38086044.519 8 153356817.014 8        49.000  
C09                                                  40018411.151 7 161137553.731 7        44.000  
C10                                                  37126526.143 8 149493251.594 8        49.000  
> 2021 11 07 15 56  0.0000000  0 23                     
G05  24921120.026 6 130961384.451 6        40.000    24921112.199 6 102047811.577 6        40.000                                                  
G07  22941114.471 7 120556443.324 7        45.000    22941106.358 7  93940084.740 7        43.000                                                  
G13  20652736.986 8 108530903.034 8        50.000    20652728.552 7  84569509.322 7        47.000                                                  
G14  20305551.465 8 106706476.668 8        50.000    20305543.853 7  83147912.966 7        47.000    20305547.391 9  79683441.678 9        55.000  
G15  22278763.325 7 117075713.123 7        47.000    22278756.160 7  91227807.657 7        45.000                                                  
G17  21435131.192 8 112642397.915 8        48.000    21435123.383 7  87773280.510 7        46.000                                                  
G19  23301801.807 7 122451804.249 7        45.000    23301791.783 7  95416954.436 7        43.000                                                  
G21  24911010.555 6 130908238.298 6        38.000    24911000.24415 102006381.78815        32.0001                                                 
G28  20487320.010 8 107661673.892 8        49.000    20487310.843 7  83892208.772 7        46.000                                                  
G30  21103256.797 8 110898448.648 8        50.000    21103250.239 7  86414391.846 7        47.000    21103250.382 8  82813796.875 8        53.000  
R01  23305903.320 6 124583411.068 6        41.000    23305901.551 6  96898207.623 6        40.000  
R07  21118779.975 8 113050517.741 8        51.000    21118775.507 8  87928178.585 8        49.000  
R08  20834681.880 8 111568798.010 8        50.000    20834675.554 8  86775721.137 8        48.000  
R09  19881308.625 9 106165181.403 9        56.000    19881304.997 8  82572944.747 8        53.000  
R10  20717271.749 8 110434757.315 8        52.000                                                  
R16  22698632.794 7 121252160.098 7        43.000    22698627.076 5  94307217.069 5        33.000  
R18  22289192.044 7 118981225.914 7        47.000    22289190.275 7  92540985.779 7        46.000  
R19  21478203.364 6 114893907.887 6        39.000    21478200.433 7  89361930.995 7        45.000  
C02                                                  38723368.436 7 155923007.555 7        47.000  
C05                                                  37837896.450 8 152357538.405 8        48.000  
C07                                                  38094069.729 8 153389129.275 8        49.000  
C09                                                  40031940.861 7 161192037.832 7        42.000  
C10                                                  37131412.427 8 149512924.954 8        51.000  
> 2021 11 07 15 57  0.0000000  0 23                     
G05  24952068.423 6 131124020.492 6        40.000    24952061.472 6 102174540.953 6        40.000                                                  
G07  22969872.376 7 120707569.217 7        45.000    22969864.961 7  94057845.121 7        43.000                                                  
G13  20645142.741 8 108490996.055 8        51.000    20645134.789 8  84538412.969 8        48.000                                                  
G14  20312090.742 8 106740841.747 8        50.000    20312083.898 7  83174690.952 7        47.000    20312087.061 9  79709103.921 9        55.000  
G15  22258633.406 8 116969929.547 8        48.000    22258625.455 7  91145378.908 7        45.000                                                  
G17  21410232.763 8 112511558.938 8        49.000    21410225.258 7  87671328.095 7        47.000                                                  
G19  23259328.391 7 122228606.223 7        45.000    23259318.545 7  95243033.967 7        43.000                                                  
G21  24908363.867 6 130894332.375 6        38.000    24908354.807 5 101995545.968 5        34.000                                                  
G28  20484081.374 8 107644654.631 8        49.000    20484072.190 7  83878947.023 7        46.000                                                  
G30  21119923.681 8 110986033.822 8        50.000    21119917.749 7  86482640.027 7        47.000    21119918.142 8  82879201.377 8        52.000  
R01  23270319.251 7 124393194.342 7        43.000    23270317.518 6  96750261.308 6        41.000  
R07  21155574.544 8 113247481.356 8        52.000    21155570.274 8  88081372.429 8        49.000  
R08  20831104.305 8 111549640.575 8        49.000    20831098.140 8  86760820.938 8        49.000  
R09  19890849.075 9 106216127.509 9        56.000    19890845.733 8  82612569.503 8        52.000  
R10  20697612.536 8 110329962.718 8        53.000                                                  
R16  22730658.801 7 121423237.683 7        45.000    22730653.494 6  94440277.382 6        36.000  
R18  22306332.422 8 119072723.014 8        48.000    22306330.725 7  92612150.195 7        47.000  
R19  21456557.312 6 114778116.621 6        39.000    21456554.345 7  89271871.157 7        45.000  
C02                                                  38723266.047 7 155922595.614 7        47.000  
C05                                                  37837836.035 8 152357295.133 8        48.000  
C07                                                  38102103.839 8 153421478.539 8        49.000  
C09                                                  40045530.163 7 161246754.746 7        44.000  
C10                                                  37136318.456 8 149532676.004 8        50.000  
> 2021 11 07 15 58  0.0000000  0 23                     
G05  24983102.985 6 131287110.615 6        39.000    24983096.034 6 102301624.053 6        39.000                                                  
G07  22998799.680 7 120859582.475 7        44.000    22998791.246 7  94176296.990 7        43.000                                                  
G13  20637994.149 8 108453429.182 8        50.000    20637985.982 7  84509140.062 7        47.000                                                  
G14  20318915.386 8 106776705.737 8        49.000    20318908.524 7  83202636.922 7        47.000    20318911.562 9  79735885.476 9        55.000  
G15  22238910.633 8 116866282.948 8        48.000    22238902.109 7  91064615.306 7        46.000                                                  
G17  21385679.457 8 112382528.078 8        49.000    21385671.523 7  87570784.586 7        46.000                                                  
G19  23216975.179 7 122006040.136 7        44.000    23216966.012 7  95069605.907 7        43.000                                                  
G21  24906062.801 6 130882238.128 6        36.000    24906053.420 5 101986121.852 5        35.000                                                  
G28  20481118.672 8 107629086.112 8        48.000    20481109.809 7  83866815.714 7        46.000                                                  
G30  21136837.820 8 111074918.374 8        49.000    21136832.012 7  86551900.677 7        47.000    21136832.119 8  82945576.174 8        52.000  
R01  23235117.794 7 124205022.595 7        44.000    23235116.222 6  96603905.559 6        41.000  
R07  21192749.707 8 113446482.817 8        51.000    21192745.346 8  88236151.294 8        48.000  
R08  20828140.816 8 111533771.587 8        49.000    20828134.777 8  86748478.368 8        49.000  
R09  19900591.051 9 106268148.723 9        56.000    19900587.513 8  82653030.461 8        53.000  
R10  20678128.653 8 110226102.986 8        53.000                                                  
R16  22762729.283 7 121594553.453 7        43.000    22762724.226 5  94573522.920 5        35.000  
R18  22324038.390 8 119167238.415 8        49.000    22324036.621 7  92685662.192 7        46.000  
R19  21435442.148 6 114665164.831 6        40.000    21435439.075 7  89184019.769 7        45.000  
C02                                                  38723162.013 7 155922176.182 7        47.000  
C05                                                  37837772.314 8 152357038.697 8        48.000  
C07                                                  38110145.864 8 153453859.791 8        50.000  
C09                                                  40059176.325 7 161301700.119 7        45.000  
C10                                                  37141240.854 8 149552499.432 8        49.000  
> 2021 11 07 15 59  0.0000000  0 24                     
G05  25014220.477 6 131450631.051 6        40.000    25014214.401 6 102429042.525 6        40.000                                                  
G07  23027895.542 7 121012482.077 7        44.000    23027886.750 7  94295439.521 7        43.000                                                  
G13  20631292.800 8 108418212.473 8        50.000    20631283.794 7  84481698.466 7        47.000                                                  
G14  20326024.130 8 106814061.441 8        50.000    20326017.126 7  83231745.270 7        47.000    20326020.217 9  79763780.979 9        55.000  
G15  22219596.721 7 116764790.125 7        47.000    22219589.627 7  90985530.028 7        45.000                                                  
G17  21361473.221 8 112255324.469 8        49.000    21361465.662 7  87471664.920 7        46.000                                                  
G19  23174746.925 7 121784131.330 7        45.000    23174737.865 7  94896689.989 7        43.000                                                  
G21  24904108.001 6 130871965.188 6        38.000    24904098.888 5 101978116.995 5        35.000                                                  
G28  20478430.885 8 107614962.876 8        48.000    20478422.415 7  83855810.620 7        46.000                                                  
G30  21153999.462 8 111165104.235 8        50.000    21153993.636 7  86622175.354 7        47.000    21153993.708 8  83012922.746 8        52.000  
R01  23200304.810 7 124018928.337 7        44.000    23200303.613 6  96459165.566 6        39.000  
R07  21230299.528 8 113647489.929 8        51.000    21230295.133 8  88392490.095 8        48.000  
R08  20825792.237 8 111521194.755 8        49.000    20825786.215 8  86738696.402 8        50.000  
R09  19910534.037 9 106321243.589 9        57.000    19910530.374 8  82694326.444 8        53.000  
R10  20658820.423 9 110123180.542 9        54.000                                                  
R16  22794844.403 7 121766107.121 7        43.000    22794839.382 5  94706953.517 5        34.000  
R18  22342307.179 8 119264757.740 8        49.000    22342304.928 7  92761510.540 7        45.000  
R19  21414863.038 6 114555080.413 6        40.000    21414859.857 7  89098398.597 7        45.000  
R20  23565315.396 6 126014297.286 6        38.000    23565316.468 7  98011153.642 7        42.000  
C02                                                  38723056.300 7 155921750.870 7        47.000  
C05                                                  37837705.841 8 152356770.825 8        48.000  
C07                                                  38118195.787 8 153486272.783 8        50.000  
C09                                                  40072879.239 7 161356874.613 7        44.000  
C10                                                  37146181.460 8 149572394.964 8        50.000  
> 2021 11 07 16 00  0.0000000  0 24                     
G05  25045414.841 6 131614559.519 6        38.000    25045408.390 6 102556778.962 6        38.000                                                  
G07  23057160.105 7 121166266.275 7        44.000    23057151.367 7  94415271.368 7        43.000                                                  
G13  20625040.233 8 108385354.770 8        51.000    20625031.298 8  84456095.066 8        48.000                                                  
G14  20333415.044 8 106852900.345 8        50.000    20333407.986 7  83262009.356 7        47.000    20333411.023 9  79792784.058 9        55.000  
G15  22200695.494 7 116665466.241 7        47.000    22200688.328 7  90908134.831 7        45.000                                                  
G17  21337618.057 8 112129964.697 8        49.000    21337610.248 7  87373982.009 7        46.000                                                  
G19  23132648.633 7 121562903.763 7        45.000    23132639.484 7  94724304.958 7        44.000                                                  
G21  24902501.290 6 130863521.037 6        39.000    24902491.248 5 101971537.261 5        34.000                                                  
G28  20476016.995 8 107602278.332 8        48.000    20476008.310 7  83845926.569 7        46.000                                                  
G30  21171408.857 8 111256592.235 8        49.000    21171403.264 7  86693464.700 7        47.000    21171402.532 8  83081241.695 8        51.000  
R01  23165886.266 7 123834941.680 7        43.000    23165885.194 6  96316064.880 6        41.000  
R07  21268217.685 8 113850468.821 8        51.000    21268213.056 8  88550362.512 8        48.000  
R08  20824058.763 8 111511912.225 8        49.000    20824053.063 8  86731476.640 8        50.000  
R09  19920677.692 9 106375409.933 9        57.000    19920673.975 8  82736455.814 8        53.000  
R10  20639688.704 8 110021197.422 8        53.000                                                  
R16  22827003.623 7 121937896.207 7        43.000    22826998.584 5  94840567.155 5        35.000  
R18  22361135.661 8 119365264.587 8        49.000    22361133.231 7  92839682.578 7        46.000  
R19  21394824.590 6 114447889.402 6        38.000    21394821.213 7  89015027.848 7        46.000  
R20  23516600.651 6 125753799.564 6        38.000    23516600.579 7  97808544.373 7        43.000  
C02                                                  38722949.568 7 155921320.417 7        47.000  
C05                                                  37837636.563 8 152356492.197 8        48.000  
C07                                                  38126252.840 8 153518716.598 8        50.000  
C09                                                  40086638.405 7 161412277.849 7        45.000  
C10                                                  37151141.043 8 149592361.372 8        51.000  
> 2021 11 07 16 01  0.0000000  0 24                     
G05  25076681.861 6 131778868.950 6        40.000    25076674.892 6 102684812.300 6        40.000                                                  
G07  23086591.065 7 121320929.466 7        44.000    23086582.899 7  94535788.092 7        43.000                                                  
G13  20619237.982 8 108354862.544 8        50.000    20619228.958 7  84432334.881 7        47.000                                                  
G14  20341086.037 8 106893211.250 8        50.000    20341078.853 7  83293420.444 7        47.000    20341081.713 9  79822886.360 9        55.000  
G15  22182209.882 8 116568322.638 8        48.000    22182201.537 7  90832438.507 7        46.000                                                  
G17  21314116.200 8 112006462.267 8        49.000    21314108.409 7  87277746.377 7        47.000                                                  
G19  23090684.447 7 121342378.831 7        44.000    23090674.744 7  94552467.367 7        43.000                                                  
G21  24901243.043 6 130856909.563 6        37.000    24901233.054 5 101966387.400 5        34.000                                                  
G28  20473875.321 8 107591023.660 8        49.000    20473866.476 7  83837156.700 7        46.000                                                  
G30  21189066.186 8 111349380.263 8        49.000    21189059.932 7  86765767.018 7        46.000    21189059.378 8  83150531.428 8        51.000  
R01  23131867.202 7 123653090.676 7        44.000    23131866.255 7  96174625.301 7        42.000  
R07  21306497.313 8 114055382.541 8        51.000    21306492.578 7  88709739.808 7        47.000  
R08  20822940.359 8 111505922.757 8        50.000    20822934.677 8  86726818.167 8        51.000  
R09  19931021.033 9 106430642.016 9        56.000    19931017.119 8  82779414.100 8        53.000  
R10  20620732.869 9 109920151.962 9        54.000                                                  
R16  22859206.122 7 122109916.388 7        44.000    22859201.226 5  94974360.657 5        34.000  
R18  22380520.228 7 119468740.676 7        47.000    22380517.797 7  92920163.941 7        46.000  
R19  21375331.506 6 114343614.575 6        40.000    21375328.218 7  88933925.249 7        46.000  
R20  23467916.176 6 125493462.085 6        37.000    23467915.604 6  97606059.593 6        39.000  
C02                                                  38722841.014 8 155920883.445 8        48.000  
C05                                                  37837564.354 8 152356201.388 8        48.000  
