     3.02           OBSERVATION DATA    M                   RINEX VERSION / TYPE
HIVE                geosystems.aero     18-JAN-22 05:31     PGM / RUN BY / DATE 
ALAT                                                        MARKER NAME         
113                                                         MARKER NUMBER       
                                                            MARKER TYPE         
geosystems.aero     Industrial Geodetic Systems             OBSERVER / AGENCY   
                    CHC N71                                 REC # / TYPE / VERS 
                    CHCC220GR       CHCD                    ANT # / TYPE        
  2529868.2689  2674077.3901  5191362.5543                  APPROX POSITION XYZ 
        0.0000        0.0000        0.0000                  ANTENNA: DELTA H/E/N
G  6   C1C L1C S1C C2W L2W S2W                              SYS / # / OBS TYPES 
R  6   C1C L1C S1C C2P L2P S2P                              SYS / # / OBS TYPES 
    60.000                                                  INTERVAL            
  2021    11    07    00    00   00.0000000     GPS         TIME OF FIRST OBS   
  2021    11    07    23    59   00.0000000     GPS         TIME OF LAST OBS    
 C1C    0.000 C1P    0.000 C2C    0.000 C2P    0.000        GLONASS COD/PHS/BIS 
    18                                                      LEAP SECONDS        
    49                                                      # OF SATELLITES     
   G01   318   318   318   318   318   318                  PRN / # OF OBS      
   G02   163   163   163   163   163   163                  PRN / # OF OBS      
   G04   287   287   287   287   287   287                  PRN / # OF OBS      
   G05   140   140   140   140   140   140                  PRN / # OF OBS      
   G06   226   226   226   226   226   226                  PRN / # OF OBS      
   G07   161   161   161   161   161   161                  PRN / # OF OBS      
   G08   289   289   289   289   289   289                  PRN / # OF OBS      
   G09   205   205   205   205   205   205                  PRN / # OF OBS      
   G10   375   375   375   375   375   375                  PRN / # OF OBS      
   G12    90    90    90    90    90    90                  PRN / # OF OBS      
   G13   190   190   190   190   190   190                  PRN / # OF OBS      
   G14    87    87    87    87    87    87                  PRN / # OF OBS      
   G15   241   241   241   241   241   241                  PRN / # OF OBS      
   G16   384   384   384   384   384   384                  PRN / # OF OBS      
   G17   191   191   191   191   191   191                  PRN / # OF OBS      
   G18   280   280   280   280   280   280                  PRN / # OF OBS      
   G19   163   163   163   163   163   163                  PRN / # OF OBS      
   G20   134   134   134   134   134   134                  PRN / # OF OBS      
   G21   345   345   345   345   345   345                  PRN / # OF OBS      
   G22   377   377   377   377   377   377                  PRN / # OF OBS      
   G23   354   354   354   354   354   354                  PRN / # OF OBS      
   G24   170   170   170   170   170   170                  PRN / # OF OBS      
   G25   171   171   171   171   171   171                  PRN / # OF OBS      
   G26   386   386   386   386   386   386                  PRN / # OF OBS      
   G27   317   317   317   317   317   317                  PRN / # OF OBS      
   G29   217   217   217   217   217   217                  PRN / # OF OBS      
   G30    40    40    40    40    40    40                  PRN / # OF OBS      
   G31   307   307   307   307   307   307                  PRN / # OF OBS      
   G32   340   340   340   340   340   340                  PRN / # OF OBS      
   R01   302   302   302   302   302   302                  PRN / # OF OBS      
   R02   334   334   334   334   334   334                  PRN / # OF OBS      
   R03   352   352   352   352   352   352                  PRN / # OF OBS      
   R04   338   338   338   338   338   338                  PRN / # OF OBS      
   R05   229   229   229   229   229   229                  PRN / # OF OBS      
   R07   193   193   193   193   193   193                  PRN / # OF OBS      
   R08   270   270   270   270   270   270                  PRN / # OF OBS      
   R09   121   121   121   121   121   121                  PRN / # OF OBS      
   R12   242   242   242   242   242   242                  PRN / # OF OBS      
   R13   309   309   309   309   309   309                  PRN / # OF OBS      
   R14   387   387   387   387   387   387                  PRN / # OF OBS      
   R15   316   316   316   316   316   316                  PRN / # OF OBS      
   R16   184   184   184   184   184   184                  PRN / # OF OBS      
   R17   306   306   306   306   306   306                  PRN / # OF OBS      
   R18   278   278   278   278   278   278                  PRN / # OF OBS      
   R19   234   234   234   234   234   234                  PRN / # OF OBS      
   R20   183   183   183   183   183   183                  PRN / # OF OBS      
   R21   209   209   209   209   209   209                  PRN / # OF OBS      
   R22   244   244   244   244   244   244                  PRN / # OF OBS      
   R24   333   333   333   333   333   333                  PRN / # OF OBS      
                                                            END OF HEADER       
> 2021 11 07 00 00  0.0000000  0 17                     
G02  25026200.714 6 131513590.163 6        36.250    25026204.034 3 102478148.858 3        21.500  
G05  21199266.000 8 111402917.048 8        49.500    21199271.400 8  86807493.883 8        53.250  
G16  24184157.160 6 127088610.225 6        37.500    24184162.320 3  99030116.963 3        21.000  
G18  21344683.718 8 112167081.712 8        49.250    21344689.678 6  87402956.808 6        40.500  
G20  22494020.210 7 118206876.055 7        43.000    22494025.030 5  92109297.275 5        30.750  
G23  25181576.654 5 132330065.334 5        33.500    25181584.594 2 103114383.219 2        17.250  
G25  23623261.664 6 124141066.238 6        39.750    23623271.184 6  96733343.605 6        37.000  
G26  21792232.196 7 114518970.363 7        46.500    21792241.216 8  89235598.087 8        49.000  
G29  20546515.284 8 107972690.791 8        51.250    20546521.184 9  84134597.922 9        55.500  
G31  24960009.554 6 131165720.076 6        37.000    24960015.214 5 102207082.519 5        31.500  
R05  24089548.380 6 128772429.284 6        39.500    24089550.240 6 100156333.568 6        39.000  
R07  22023121.376 7 117891507.407 7        47.250    22023125.256 7  91693397.467 7        43.750  
R12  22203799.412 7 118608706.570 7        47.250    22203802.392 7  92251250.694 7        43.000  
R13  20577550.224 7 109882961.805 7        42.500    20577551.244 6  85464556.000 6        40.750  
R14  22509401.092 7 119987780.441 7        47.000    22509403.472 7  93323876.976 7        43.500  
R21  22648694.272 7 121197752.056 7        44.500    22648695.572 6  94264940.184 6        39.750  
R22  19592506.152 7 104586117.883 7        43.500    19592506.772 6  81344796.416 6        37.500  
> 2021 11 07 00 01  0.0000000  0 17                     
G02  25061229.754 6 131697670.524 6        36.000    25061233.774 3 102621588.058 3        21.250  
G05  21201259.060 8 111413392.693 8        49.750    21201264.820 8  86815656.738 8        53.000  
G16  24145801.480 6 126887046.642 6        38.750    24145806.040 3  98873054.519 3        21.750  
G18  21317331.498 8 112023345.041 8        49.000    21317337.338 6  87290954.228 6        40.250  
G20  22519616.850 7 118341387.721 7        42.000    22519622.010 5  92214111.569 5        30.750  
G23  25136626.914 5 132093849.264 5        34.750    25136634.394 2 102930318.704 2        17.750  
G25  23667137.784 6 124371635.373 6        38.500    23667146.984 6  96913007.823 6        37.500  
G26  21779242.736 7 114450708.070 7        47.000    21779251.516 8  89182406.680 8        49.500  
G29  20559830.204 8 108042660.823 8        51.000    20559836.124 9  84189120.024 9        55.750  
G31  24995120.114 6 131350229.894 6        36.500    24995126.754 5 102350856.336 5        31.250  
R05  24130577.200 6 128991749.024 6        37.250    24130578.500 6 100326915.413 6        40.250  
R07  21984421.516 8 117684341.042 8        48.250    21984424.416 7  91532268.161 7        43.250  
R12  22250536.472 7 118858367.852 7        46.250    22250539.052 6  92445431.645 6        41.500  
R13  20589951.104 7 109949184.563 7        42.250    20589953.164 6  85516062.566 6        40.500  
R14  22475623.512 7 119807729.568 7        47.750    22475626.192 7  93183837.433 7        42.750  
R21  22688072.332 7 121408474.886 7        43.500    22688074.672 6  94428835.707 6        39.000  
R22  19607126.152 7 104664158.143 7        43.000    19607126.312 6  81405494.394 6        38.000  
> 2021 11 07 00 02  0.0000000  0 16                     
G02  25096286.094 6 131881889.697 6        37.500    25096289.414 3 102765135.406 3        21.500  
G05  21203747.500 8 111426468.404 8        49.000    21203753.100 8  86825845.619 8        53.000  
G16  24107662.060 6 126686621.906 6        39.750    24107666.460 3  98716879.472 3        22.250  
G18  21290250.538 8 111881035.769 8        49.000    21290256.838 6  87180063.919 6        40.000  
G20  22545553.670 7 118477685.613 7        42.750    22545559.090 5  92320317.727 5        31.000  
G23  25091675.254 5 131857628.144 5        35.250    25091682.754 2 102746250.303 2        17.750  
G25  23711120.902 6 124602767.758 6        38.750    23711129.842 6  97093110.925 6        37.500  
G26  21766683.876 7 114384711.856 7        46.750    21766692.556 8  89130981.060 8        49.500  
G29  20573475.904 8 108114369.056 8        51.750    20573481.704 9  84244996.567 9        55.750  
G31  25030352.254 6 131535374.873 6        36.250    25030358.254 5 102495125.091 5        31.000  
R07  21946079.996 7 117479096.837 7        47.750    21946082.676 7  91372633.871 7        43.500  
R12  22297499.252 7 119109232.531 7        46.000    22297501.572 6  92640548.568 6        41.000  
R13  20602968.784 7 110018691.829 7        42.250    20602969.904 6  85570123.749 6        40.000  
R14  22442280.072 7 119629987.146 7        47.000    22442281.412 7  93045593.365 7        42.000  
R21  22727543.232 7 121619693.684 7        43.250    22727545.972 6  94593116.953 6        38.750  
R22  19622072.452 7 104743944.296 7        43.250    19622072.552 6  81467550.291 6        37.250  
> 2021 11 07 00 03  0.0000000  0 16                     
G02  25131366.614 6 132066240.461 6        37.750    25131370.394 3 102908785.313 3        22.000  
G05  21206729.920 8 111442141.773 8        49.500    21206735.700 8  86838058.653 8        53.000  
G16  24069743.000 6 126487357.856 6        38.750    24069748.200 3  98561608.861 3        21.500  
G18  21263443.540 8 111740163.014 8        49.000    21263449.680 6  87070292.971 6        39.750  
G20  22571826.750 7 118615752.553 7        42.250    22571831.910 5  92427902.371 5        30.500  
G23  25046726.714 5 131621421.268 5        35.000    25046734.514 3 102562193.031 3        19.000  
G25  23755207.002 6 124834443.608 6        39.000    23755217.182 6  97273637.494 6        38.500  
G26  21754558.556 7 114320992.125 7        47.500    21754567.376 8  89081329.325 8        49.500  
G29  20587451.404 8 108187812.836 8        51.500    20587457.484 9  84302225.488 9        56.500  
G31  25065699.914 5 131721130.713 5        35.750    25065707.254 5 102639869.815 5        31.000  
R07  21908103.796 8 117275809.122 8        48.000    21908107.556 7  91214521.269 7        43.750  
R12  22344680.512 7 119361267.086 7        45.500    22344683.212 7  92836575.394 7        42.500  
R13  20616597.364 7 110091470.508 7        42.000    20616598.544 6  85626729.379 6        40.750  
R14  22409374.892 7 119454583.922 7        46.500    22409376.332 6  92909168.635 6        40.500  
R21  22767105.372 7 121831398.413 7        45.250    22767108.192 6  94757776.168 6        38.000  
R22  19637344.012 7 104825467.872 7        42.750    19637345.352 6  81530957.521 6        37.500  
> 2021 11 07 00 04  0.0000000  0 16                     
G02  25166471.454 6 132250715.749 6        37.500    25166475.294 3 103052532.239 3        21.750  
G05  21210206.240 8 111460410.770 8        49.500    21210212.360 8  86852294.249 8        53.000  
G16  24032049.260 6 126289278.814 6        37.750    24032054.720 3  98407261.654 3        20.750  
G18  21236911.460 8 111600737.125 8        49.000    21236917.840 6  86961649.450 6        41.000  
G20  22598433.550 7 118755572.585 7        42.250    22598438.090 4  92536853.058 4        28.750  
G23  25001785.074 5 131385249.099 5        34.000    25001791.734 2 102378162.872 2        17.750  
G25  23799393.842 6 125066644.542 6        39.000    23799403.502 6  97454573.219 6        38.250  
G26  21742868.276 7 114259560.288 7        47.250    21742876.776 8  89033460.358 8        49.500  
G29  20601757.584 8 108262990.490 8        52.000    20601763.444 9  84360805.484 9        56.000  
G31  25101160.154 6 131907475.490 6        36.250    25101167.254 5 102785073.472 5        30.000  
R07  21870500.276 8 117074514.295 8        48.500    21870503.236 7  91057958.677 7        44.250  
R12  22392075.112 7 119614438.836 7        46.500    22392077.512 7  93033486.711 7        42.750  
R13  20630837.204 6 110167508.080 6        41.750    20630838.184 6  85685869.691 6        40.500  
R14  22376914.172 7 119281550.810 7        46.000    22376915.692 6  92774587.344 6        41.500  
R21  22806758.088 7 122043580.754 7        45.000    22806759.828 6  94922806.867 6        38.750  
R22  19652940.812 7 104908721.719 7        43.250    19652941.472 6  81595710.505 6        38.000  
> 2021 11 07 00 05  0.0000000  0 16                     
G02  25201597.852 6 132435307.467 6        36.000    25201600.512 3 103196369.909 3        19.250  
G05  21214176.020 8 111481270.205 8        49.000    21214181.560 8  86868548.369 8        53.000  
G16  23994585.980 6 126092405.962 6        38.000    23994590.640 3  98253854.276 3        19.750  
G18  21210656.740 8 111462765.814 8        49.250    21210662.700 6  86854139.373 6        40.750  
G20  22625370.550 7 118897126.924 7        42.250    22625375.490 5  92647155.151 5        30.250  
G23  24956852.834 5 131149129.800 5        34.250    24956859.334 3 102194173.913 3        19.000  
G25  23843676.262 6 125299349.728 6        39.000    23843685.582 6  97635901.837 6        36.750  
G26  21731615.296 7 114200425.027 7        46.750    21731623.976 8  88987380.932 8        49.500  
G29  20616392.444 8 108339898.347 8        51.750    20616398.424 9  84420733.692 9        55.750  
G31  25136727.434 5 132094384.663 5        35.250    25136734.314 4 102930716.934 4        29.750  
R07  21833274.596 7 116875245.216 7        47.500    21833277.996 7  90902971.672 7        43.500  
R12  22439675.592 7 119868713.047 7        46.750    22439678.752 7  93231255.478 7        43.750  
R13  20645683.644 6 110246789.618 6        41.750    20645684.864 6  85747533.090 6        40.750  
R14  22344903.852 7 119110916.272 7        46.500    22344905.732 7  92641871.605 7        42.500  
R21  22846496.248 7 122256229.572 7        44.500    22846498.068 6  95088200.342 6        39.000  
R22  19668859.092 7 104993696.260 7        43.500    19668860.352 6  81661801.819 6        37.750  
> 2021 11 07 00 06  0.0000000  0 16                     
G02  25236744.732 6 132620007.549 6        36.000    25236748.112 3 103340291.983 3        19.750  
G05  21218637.640 8 111504715.906 8        48.250    21218643.140 8  86886817.760 8        53.000  
G16  23957356.162 6 125896761.120 6        38.750    23957361.542 3  98101403.805 3        21.000  
G18  21184680.200 8 111326257.063 8        49.750    21184686.040 6  86747768.942 6        41.000  
G20  22652634.330 7 119040397.604 7        42.500    22652639.190 5  92758794.654 5        30.250  
G23  24911934.454 6 130913081.986 6        36.750    24911940.894 3 102010240.717 3        21.250  
G25  23888050.622 6 125532538.674 6        37.250    23888059.422 5  97817607.478 5        34.000  
G26  21720800.796 7 114143594.850 7        47.500    21720809.796 8  88943097.674 8        50.000  
G29  20631356.144 8 108418532.222 8        50.500    20631361.924 9  84482006.851 9        55.250  
G31  25172399.514 5 132281833.977 5        35.250    25172405.054 4 103076781.243 4        29.500  
R07  21796434.556 7 116678036.053 7        47.750    21796437.736 7  90749586.809 7        43.750  
R12  22487477.012 7 120124055.307 7        46.500    22487479.052 7  93429854.941 7        43.250  
R13  20661135.344 7 110329299.445 7        42.000    20661136.264 6  85811707.369 6        40.250  
R14  22313348.092 8 118942709.193 8        48.000    22313350.632 7  92511043.891 7        43.750  
R21  22886320.708 7 122469334.767 7        45.500    22886321.928 6  95253948.776 6        39.500  
R22  19685098.132 7 105080381.972 7        43.000    19685099.452 6  81729224.043 6        37.750  
> 2021 11 07 00 07  0.0000000  0 16                     
G02  25271911.192 6 132804808.880 6        36.250    25271914.552 3 103484292.975 3        20.250  
G05  21223590.160 8 111530742.325 8        49.750    21223595.760 8  86907098.100 8        53.000  
G16  23920362.902 6 125702366.567 6        38.500    23920369.142 3  97949927.571 3        21.500  
G18  21158983.500 8 111191219.418 8        49.750    21158989.160 6  86642544.838 6        41.000  
G20  22680220.450 6 119185366.591 6        41.750    22680225.450 4  92871757.503 4        29.500  
G23  24867032.516 6 130677124.845 6        36.250    24867040.396 3 101826378.180 3        22.000  
G25  23932514.342 6 125766191.671 6        37.750    23932521.882 5  97999674.679 5        34.000  
G26  21710426.936 7 114089078.908 7        47.000    21710435.776 8  88900617.718 8        50.000  
G29  20646647.724 8 108498888.827 8        51.000    20646653.424 9  84544622.397 9        55.250  
G31  25208167.232 5 132469800.069 5        34.500    25208174.132 4 103223248.252 4        28.250  
R07  21759984.496 7 116482920.140 7        47.500    21759988.176 7  90597830.025 7        44.500  
R12  22535470.852 7 120380431.941 7        44.750    22535473.852 7  93629258.921 7        42.500  
R13  20677188.184 6 110415021.674 6        41.500    20677190.024 6  85878380.195 6        40.250  
R14  22282254.212 8 118776958.525 8        48.500    22282255.972 7  92382126.717 7        43.500  
R21  22926228.068 7 122682886.630 7        44.000    22926228.908 6  95420044.613 6        39.250  
R22  19701656.112 7 105168770.219 7        43.000    19701657.332 6  81797970.459 6        36.750  
> 2021 11 07 00 08  0.0000000  0 16                     
G02  25307097.052 6 132989702.873 6        36.250    25307098.772 3 103628366.177 3        19.750  
G05  21229032.820 8 111559344.653 8        49.500    21229038.720 8  86929385.638 8        53.000  
G16  23883613.342 6 125509244.744 6        40.000    23883618.482 3  97799443.056 3        22.500  
G18  21133567.800 8 111057660.726 8        49.750    21133573.640 6  86538473.159 6        41.250  
G20  22708126.810 6 119332015.632 6        41.500    22708131.710 4  92986029.499 4        28.750  
G23  24822152.676 5 130441277.103 5        35.750    24822159.336 3 101642600.817 3        18.500  
G25  23977061.222 6 126000288.220 6        39.000    23977069.942 6  98182087.544 6        37.000  
G26  21700494.496 7 114036885.228 7        47.500    21700503.436 8  88859947.320 8        50.000  
G29  20662266.044 8 108580964.536 8        50.500    20662272.004 9  84608577.488 9        55.750  
G31  25244030.172 5 132658258.768 5        34.250    25244036.892 4 103370099.119 4        28.500  
R07  21723933.276 8 116289931.518 8        48.250    21723936.456 7  90447727.811 7        45.000  
R12  22583652.792 7 120637808.235 7        44.500    22583654.332 6  93829440.388 6        41.000  
R13  20693840.584 7 110503938.866 7        42.000    20693841.004 6  85947538.000 6        39.750  
R14  22251625.792 8 118613692.485 8        48.250    22251627.812 7  92255142.024 7        43.500  
R21  22966216.668 7 122896874.474 7        43.500    22966217.608 6  95586479.584 6        38.250  
R22  19718530.412 7 105258851.751 7        42.750    19718532.752 6  81868033.877 6        37.000  
> 2021 11 07 00 09  0.0000000  0 16                     
G02  25342297.012 6 133174682.707 6        37.000    25342299.592 3 103772506.207 3        21.500  
G05  21234964.520 8 111590516.880 8        50.000    21234970.380 8  86953675.699 8        53.000  
G16  23847110.102 6 125317417.260 6        40.250    23847115.102 3  97649967.123 3        22.500  
G18  21108435.060 8 110925588.868 8        49.000    21108440.900 6  86435560.047 6        41.000  
G20  22736349.050 6 119480326.299 6        41.250    22736354.290 4  93101596.277 4        29.500  
G23  24777296.936 5 130205557.605 5        34.500    24777302.956 2 101458923.343 2        16.250  
G25  24021688.280 6 126234808.343 6        38.500    24021697.440 5  98364830.443 5        35.750  
G26  21691005.936 8 113987021.768 8        48.000    21691014.716 8  88821092.680 8        50.000  
G29  20678210.684 8 108664754.954 8        51.500    20678216.904 9  84673868.732 9        55.250  
G31  25279981.932 5 132847186.177 5        35.500    25279987.992 4 103517315.208 4        28.000  
R07  21688284.856 8 116099102.694 8        48.000    21688288.036 7  90299305.462 7        44.500  
R12  22632014.632 7 120896150.219 7        45.500    22632016.472 6  94030373.006 6        39.000  
R13  20711085.824 6 110596034.256 6        41.750    20711087.564 6  86019167.728 6        40.000  
R14  22221468.092 7 118452939.052 7        47.500    22221470.792 7  92130111.590 7        44.000  
R21  23006284.528 7 123111288.635 7        43.500    23006286.208 6  95753246.085 6        37.500  
R22  19735721.932 7 105350617.545 7        42.750    19735723.592 6  81939407.268 6        37.000  
> 2021 11 07 00 10  0.0000000  0 16                     
G02  25377512.772 6 133359740.108 6        38.500    25377514.832 3 103916706.726 3        20.500  
G05  21241384.320 8 111624253.046 8        49.000    21241390.020 8  86979963.631 8        52.750  
G16  23810857.742 6 125126905.818 6        39.000    23810861.562 3  97501516.667 3        22.500  
G18  21083587.100 8 110795011.946 8        49.500    21083592.920 6  86333811.819 6        41.000  
G20  22764884.910 6 119630280.457 6        41.250    22764890.330 4  93218443.663 4        29.750  
G23  24732467.136 5 129969985.643 5        32.750    24732474.496 2 101275360.894 2        16.750  
G25  24066392.020 6 126469732.162 6        36.500    24066402.260 6  98547887.898 6        36.000  
G26  21681962.296 7 113939496.449 7        47.500    21681971.096 8  88784059.958 8        50.000  
G29  20694481.082 8 108750256.355 8        51.000    20694487.142 9  84740493.194 9        55.250  
G31  25316017.772 5 133036558.916 5        34.500    25316025.032 4 103664878.293 4        29.000  
R07  21653046.156 8 115910467.000 8        49.000    21653049.156 7  90152588.852 7        45.000  
R12  22680551.152 7 121155424.222 7        45.750    22680553.012 6  94232030.545 6        40.000  
R13  20728924.904 6 110691290.207 6        41.750    20728925.984 6  86093255.663 6        40.750  
R14  22191787.292 7 118294725.981 7        45.750    22191790.432 7  92007057.013 7        43.500  
R21  23046428.968 7 123326119.831 7        42.500    23046432.928 6  95920336.967 6        39.500  
R22  19753226.292 7 105444058.491 7        42.750    19753227.932 6  82012083.560 6        37.250  
> 2021 11 07 00 11  0.0000000  0 16                     
G02  25412740.152 6 133544868.412 6        37.250    25412743.772 3 104060962.495 3        20.500  
G05  21248291.220 8 111660547.450 8        49.500    21248296.660 8  87008244.997 8        52.750  
G16  23774859.282 6 124937733.322 6        39.250    23774863.562 3  97354109.583 3        22.500  
G18  21059025.020 8 110665938.243 8        49.750    21059031.220 6  86233234.942 6        41.750  
G20  22793729.388 7 119781860.066 7        42.000    22793735.148 5  93336557.670 5        30.750  
G23  24687672.636 6 129734580.982 6        37.250    24687679.376 3 101091928.824 3        22.000  
G25  24111170.280 6 126705040.228 6        36.250    24111180.360 5  98731244.760 5        35.500  
G26  21673364.856 7 113894317.164 7        47.500    21673373.616 8  88748855.312 8        49.500  
G29  20711076.202 8 108837465.568 8        51.000    20711082.382 9  84808448.417 9        56.000  
G31  25352134.912 5 133226353.686 5        35.000    25352141.832 4 103812770.289 4        28.000  
R07  21618223.256 8 115724057.651 8        49.000    21618226.396 7  90007603.862 7        45.750  
R12  22729255.392 7 121415596.708 7        44.500    22729259.052 7  94434386.865 7        43.000  
R13  20747351.944 7 110789689.354 7        42.250    20747352.464 6  86169788.305 6        40.750  
R14  22162590.376 7 118139081.702 7        46.500    22162591.596 7  91886000.389 7        43.500  
R21  23086653.788 7 123541358.586 7        44.500    23086655.428 6  96087744.856 6        38.250  
R22  19771044.252 7 105539165.542 7        43.000    19771044.892 6  82086055.709 6        38.250  
> 2021 11 07 00 12  0.0000000  0 16                     
G02  25447981.432 6 133730059.806 6        37.500    25447984.692 3 104205267.377 3        19.750  
G05  21255683.200 8 111699391.782 8        49.500    21255688.340 8  87038513.314 8        52.750  
G16  23739118.222 6 124749921.439 6        39.500    23739124.282 3  97207762.692 3        22.750  
G18  21034751.000 8 110538374.546 8        49.500    21034756.580 7  86133834.689 7        42.250  
G20  22822879.988 6 119935045.432 6        41.750    22822885.148 4  93455922.897 4        28.250  
G23  24642911.936 6 129499361.929 6        39.750    24642918.896 4 100908641.340 4        26.250  
G25  24156016.640 5 126940711.829 5        35.500    24156026.700 5  98914884.823 5        35.000  
G26  21665215.336 8 113851490.025 8        48.000    21665223.516 8  88715483.520 8        49.750  
G29  20727995.782 8 108926377.163 8        51.000    20728001.602 9  84877730.167 9        55.250  
G31  25388327.312 5 133416546.050 5        35.250    25388334.112 4 103960972.047 4        27.000  
R07  21583822.220 8 115539906.271 8        48.500    21583825.560 7  89864375.050 7        44.750  
R12  22778121.972 7 121676632.932 7        44.000    22778125.452 7  94637414.921 7        42.500  
R13  20766362.604 6 110891210.726 6        41.500    20766364.524 6  86248749.343 6        40.500  
R14  22133877.256 7 117986032.446 7        47.250    22133879.776 7  91766962.066 7        43.000  
R21  23126950.048 7 123756994.493 7        44.000    23126952.088 6  96255461.617 6        38.000  
R22  19789170.828 7 105635929.342 7        43.000    19789172.528 6  82161316.428 6        37.750  
> 2021 11 07 00 13  0.0000000  0 16                     
G02  25483232.630 6 133915307.423 6        37.000    25483235.910 3 104349616.137 3        19.000  
G05  21263558.540 8 111740778.970 8        49.750    21263564.040 8  87070763.073 8        52.500  
G16  23703642.262 6 124563491.746 6        38.500    23703647.542 4  97062492.830 4        25.000  
G18  21010764.940 8 110412328.427 8        48.500    21010770.800 7  86035616.977 7        42.000  
G20  22852331.888 6 120089818.347 6        41.250    22852337.068 4  93576525.173 4        29.000  
G23  24598190.576 6 129264347.675 6        39.750    24598197.256 3 100725513.418 3        22.500  
G25  24200929.560 6 127176726.906 6        38.500    24200938.980 5  99098792.578 5        34.250  
G26  21657514.276 8 113811021.746 8        48.000    21657522.856 8  88683949.798 8        50.000  
G29  20745238.242 8 109016986.566 8        51.000    20745244.062 9  84948334.890 9        56.000  
G31  25424590.812 5 133607112.862 5        35.750    25424598.292 4 104109465.630 4        27.000  
R07  21549848.860 7 115358045.644 7        47.750    21549852.520 7  89722927.948 7        45.250  
R12  22827145.248 7 121938499.433 7        43.500    22827147.628 7  94841088.721 7        43.000  
R13  20785956.564 7 110995835.019 7        42.000    20785957.264 6  86330123.779 6        40.500  
R14  22105658.556 8 117835604.790 8        48.500    22105659.676 6  91649962.784 6        41.500  
R21  23167320.028 7 123973017.782 7        43.000    23167321.488 6  96423479.670 6        38.500  
R22  19807606.568 7 105734339.944 7        42.750    19807607.828 6  82237858.011 6        37.750  
> 2021 11 07 00 14  0.0000000  0 16                     
G02  25518493.850 6 134100603.600 6        37.000    25518497.270 3 104494002.715 3        19.250  
G05  21271916.560 8 111784700.745 8        49.000    21271922.060 8  87104987.843 8        52.500  
G16  23668433.544 6 124378466.254 6        40.750    23668438.064 4  96918317.134 4        24.500  
G18  20987069.540 8 110287807.521 8        50.000    20987075.160 7  85938587.730 7        42.000  
G20  22882082.348 6 120246159.786 6        41.500    22882087.928 4  93698349.683 4        28.500  
G23  24553511.138 6 129029557.685 6        37.000    24553517.838 3 100542560.263 3        21.500  
G25  24245903.440 6 127413065.826 6        39.750    24245912.120 5  99282952.768 5        33.250  
G26  21650263.816 7 113772918.945 7        47.750    21650272.116 8  88654259.297 8        49.750  
G29  20762802.722 8 109109289.485 8        51.000    20762808.802 9  85020259.236 9        55.250  
G31  25460922.032 6 133798030.227 6        37.000    25460928.412 4 104258232.385 4        28.000  
R07  21516309.080 8 115178507.541 8        49.250    21516312.700 7  89583287.220 7        45.250  
R12  22876315.848 7 122201162.233 7        45.750    22876318.168 6  95045381.954 6        40.750  
R13  20806125.564 6 111103542.276 6        40.750    20806126.984 6  86413896.067 6        40.250  
R14  22077935.216 8 117687825.821 8        48.250    22077937.076 7  91535023.584 7        43.000  
R21  23207760.568 7 124189419.516 7        42.500    23207760.588 6  96591792.105 6        38.500  
R22  19826349.428 7 105834388.685 7        43.000    19826350.748 6  82315673.688 6        37.000  
> 2021 11 07 00 15  0.0000000  0 16                     
G02  25553762.450 5 134285940.374 5        35.750    25553765.350 3 104638420.917 3        18.500  
G05  21280755.420 8 111831149.216 8        49.500    21280760.860 8  87141181.456 8        52.500  
G16  23633495.884 6 124194866.920 6        40.750    23633500.764 3  96775252.718 3        23.750  
G18  20963665.042 8 110164818.463 8        49.000    20963671.062 7  85842752.130 7        42.000  
G20  22912128.468 6 120404050.130 6        41.000    22912132.428 4  93821381.134 4        27.500  
G23  24508877.098 5 128795010.478 5        34.250    24508884.918 2 100359796.279 2        17.750  
G25  24290935.138 6 127649708.139 6        37.000    24290943.878 5  99467349.329 5        32.000  
G26  21643463.836 8 113737186.816 8        48.000    21643472.816 8  88626416.072 8        50.000  
G29  20780688.742 8 109203281.012 8        51.500    20780694.982 9  85093499.377 9        55.250  
G31  25497314.310 5 133989274.544 5        35.250    25497321.030 4 104407253.859 4        25.500  
R07  21483210.340 8 115001323.201 8        49.500    21483213.180 7  89445477.212 7        45.500  
R12  22925629.588 7 122464587.207 7        45.750    22925632.088 6  95250268.018 6        38.000  
R13  20826868.824 6 111214310.632 6        41.250    20826870.804 6  86500049.206 6        39.500  
R14  22050713.656 8 117542720.467 8        48.500    22050715.976 7  91422163.850 7        43.000  
R21  23248267.928 7 124406189.300 7        42.000    23248269.348 6  96760390.782 6        40.250  
R22  19845396.288 7 105936065.384 7        42.500    19845397.248 6  82394755.567 6        37.500  
> 2021 11 07 00 16  0.0000000  0 16                     
G02  25589036.230 5 134471309.893 5        34.750    25589039.730 2 104782864.599 2        17.750  
G05  21290073.138 8 111880114.483 8        49.000    21290078.678 8  87179336.214 8        52.500  
G16  23598833.664 7 124012713.570 7        42.000    23598838.104 4  96633315.067 4        25.000  
G18  20940553.622 8 110043366.876 8        49.500    20940559.542 7  85748114.564 7        42.500  
G20  22942464.648 6 120563468.962 6        41.250    22942469.708 4  93945603.612 4        28.000  
G23  24464294.858 6 128560723.973 6        36.500    24464300.958 3 100177235.421 3        20.500  
G25  24336019.698 5 127886632.496 5        34.750    24336028.918 5  99651965.615 5        31.000  
G26  21637116.396 7 113703829.554 7        47.500    21637125.136 8  88600423.388 8        50.000  
G29  20798894.882 8 109298954.301 8        51.250    20798900.882 9  85168049.980 9        55.250  
G31  25533764.450 5 134180820.970 5        34.000    25533770.790 4 104556510.784 4        24.000  
R07  21450556.080 8 114826522.537 8        49.750    21450559.080 7  89309521.199 7        45.500  
R12  22975079.748 7 122728738.957 7        43.750    22975080.968 6  95455719.352 6        38.500  
R13  20848181.824 6 111328117.357 6        41.000    20848183.384 6  86588565.529 6        40.000  
R14  22023998.496 8 117400313.386 8        48.250    22024000.536 7  91311402.787 7        44.250  
R21  23288842.528 7 124623316.828 7        42.000    23288845.848 6  96929267.694 6        38.500  
R22  19864746.648 7 106039359.010 7        43.000    19864747.388 6  82475095.027 6        37.250  
> 2021 11 07 00 17  0.0000000  0 17                     
G02  25624317.130 5 134656712.006 5        35.750    25624320.690 3 104927333.780 3        19.000  
G05  21299869.938 8 111931594.415 8        49.000    21299875.078 8  87219450.460 8        52.500  
G16  23564451.744 6 123832035.485 6        40.000    23564455.964 3  96492526.910 3        21.500  
G18  20917737.722 8 109923466.831 8        49.000    20917743.422 7  85654685.980 7        42.750  
G20  22973089.828 6 120724404.659 6        41.250    22973095.208 4  94071008.062 4        28.500  
G23  24419765.858 6 128326724.498 6        38.250    24419772.338 3  99994898.189 3        22.750  
G25  24381155.598 5 128123826.129 5        35.000    24381166.078 5  99836791.734 5        33.250  
G26  21631223.116 8 113672859.359 8        48.000    21631231.616 8  88576290.775 8        50.250  
G29  20817421.182 8 109396311.146 8        51.000    20817427.202 9  85243912.458 9        55.500  
R07  21418354.720 8 114654143.757 8        49.250    21418357.080 7  89175448.827 7        46.000  
R08  24050774.200 5 128790795.292 5        35.000    24050776.340 6 100170637.291 6        36.000  
R12  23024659.948 7 122993591.065 7        42.500    23024662.728 6  95661715.315 6        41.250  
R13  20870059.924 6 111444947.994 6        41.000    20870061.664 6  86679433.767 6        39.500  
R14  21997795.356 7 117260636.955 7        47.500    21997797.656 7  91202765.577 7        44.250  
R21  23329485.168 7 124840799.513 7        42.250    23329487.308 6  97098420.844 6        38.500  
R22  19884400.148 7 106144267.440 7        42.250    19884401.588 6  82556690.487 6        36.750  
R24  24108058.980 6 128916636.330 6        36.000    24108060.660 5 100268490.025 5        34.500  
> 2021 11 07 00 18  0.0000000  0 17                     
G02  25659603.690 6 134842134.363 6        37.000    25659606.550 3 105071818.667 3        20.250  
G05  21310142.078 8 111985574.019 8        48.500    21310146.918 8  87261512.488 8        52.500  
G16  23530353.284 6 123652848.713 6        38.750    23530357.764 3  96352900.851 3        22.000  
G18  20895216.942 8 109805120.024 8        48.750    20895222.782 7  85562467.718 7        42.750  
G20  23003998.868 7 120886832.632 7        42.000    23004003.548 4  94197575.316 4        28.250  
G23  24375294.598 6 128093026.127 6        38.250    24375301.378 3  99812795.627 3        22.500  
G25  24426339.158 5 128361264.047 5        34.500    24426349.378 5 100021808.204 5        34.000  
G26  21625783.676 7 113644275.910 7        47.750    21625792.416 8  88554017.955 8        50.250  
G29  20836266.082 8 109495341.748 8        51.250    20836272.102 9  85321079.161 9        55.000  
R07  21386608.800 8 114484212.393 8        49.250    21386612.800 7  89043280.026 7        45.750  
R08  24000081.880 6 128519337.064 6        36.250    24000083.680 6  99959503.194 6        36.000  
R12  23074365.428 7 123259104.939 7        43.000    23074367.708 7  95868225.951 7        42.500  
R13  20892499.844 6 111564774.064 6        40.750    20892501.004 6  86772631.795 6        39.250  
R14  21972107.936 7 117123710.993 7        47.750    21972111.016 7  91096267.598 7        44.000  
R21  23370192.188 7 125058622.689 7        42.000    23370193.148 6  97267838.824 6        38.750  
R22  19904352.788 7 106250776.385 7        43.250    19904353.088 6  82639530.778 6        37.250  
R24  24066443.900 6 128694104.411 6        36.750    24066447.960 5 100095409.761 5        35.750  
> 2021 11 07 00 19  0.0000000  0 17                     
G02  25694890.350 5 135027570.681 5        34.750    25694893.270 2 105216314.470 2        16.750  
G05  21320887.358 8 112042044.281 8        48.500    21320893.258 8  87305515.292 8        52.500  
G16  23496542.984 6 123475175.362 6        38.500    23496548.244 3  96214454.113 3        22.750  
G18  20872993.062 8 109688333.561 8        48.000    20872998.902 7  85471465.304 7        42.750  
G20  23035188.048 6 121050733.649 6        41.000    23035193.568 4  94325290.404 4        27.750  
G23  24330884.338 6 127859648.496 6        38.750    24330891.338 4  99630942.987 4        25.250  
G25  24471565.958 6 128598926.836 6        36.000    24471575.398 5 100206999.854 5        35.000  
G26  21620799.616 7 113618084.041 7        46.500    21620808.136 8  88533608.703 8        50.250  
G29  20855428.422 8 109596041.205 8        50.000    20855434.502 9  85399546.258 9        55.000  
R07  21355327.360 8 114316758.875 8        49.500    21355330.800 7  88913038.424 7        45.500  
R08  23949410.304 5 128247986.869 5        35.500    23949411.044 6  99748453.105 6        36.500  
R12  23124187.928 7 123525247.490 7        45.250    23124190.248 6  96075225.666 6        41.000  
R13  20915496.624 6 111687573.491 6        40.750    20915497.864 6  86868142.441 6        39.500  
R14  21946942.236 7 116989560.239 7        47.000    21946944.656 7  90991928.150 7        45.000  
R21  23410957.804 6 125276777.891 6        40.500    23410960.324 6  97437515.086 6        37.000  
R22  19924603.408 7 106358876.082 7        43.000    19924605.148 6  82723608.307 6        37.250  
R24  24024863.100 6 128471753.705 6        38.250    24024866.880 5  99922470.413 5        35.500  
> 2021 11 07 00 20  0.0000000  0 17                     
G02  25730179.310 5 135213013.891 5        34.500    25730182.130 2 105360815.607 2        17.250  
G05  21332105.458 8 112100994.885 8        48.000    21332111.238 8  87351450.831 8        52.250  
G16  23463024.664 6 123299037.057 6        38.250    23463029.924 4  96077203.490 4        25.500  
G18  20851067.662 7 109573113.932 7        47.750    20851073.302 7  85381683.801 7        43.000  
G20  23066653.748 6 121216088.724 6        41.500    23066659.508 4  94454138.533 4        28.750  
G23  24286538.858 6 127626610.924 6        37.750    24286545.378 3  99449355.299 3        22.750  
G25  24516830.558 6 128836794.723 6        37.000    24516839.838 5 100392351.371 5        35.000  
G26  21616271.396 7 113594287.761 7        46.750    21616280.076 8  88515066.147 8        50.250  
G29  20874907.502 8 109698403.667 8        49.500    20874913.522 9  85479309.208 9        55.250  
R07  21324514.440 8 114151813.670 8        49.750    21324517.520 7  88784747.730 7        46.000  
R08  23898763.724 5 127976775.444 5        34.000    23898764.504 5  99537511.001 5        34.500  
R12  23174122.208 7 123791985.226 7        45.000    23174124.148 6  96282688.279 6        38.250  
R13  20939045.984 6 111813322.246 6        40.750    20939046.384 6  86965946.980 6        39.500  
R14  21922301.436 8 116858208.577 8        48.000    21922303.236 7  90889765.757 7        44.000  
R21  23451786.464 6 125495255.916 6        41.250    23451787.924 6  97607442.395 6        38.250  
R22  19945149.788 7 106468556.875 7        42.500    19945151.008 6  82808915.582 6        36.750  
R24  23983317.744 6 128249591.508 6        36.500    23983321.064 5  99749677.697 5        35.750  
> 2021 11 07 00 21  0.0000000  0 18                     
G02  25765467.270 5 135398458.328 5        35.000    25765470.890 2 105505317.741 2        15.500  
G05  21343793.518 7 112162416.465 7        47.500    21343799.338 8  87399311.811 8        52.250  
G15  25034335.654 6 131556315.370 6        36.750    25034342.954 4 102511446.255 4        29.000  
G16  23429804.244 6 123124456.633 6        39.500    23429809.004 4  95941166.819 4        26.500  
G18  20829441.662 8 109459468.700 8        48.000    20829447.502 7  85293129.105 7        43.000  
G20  23098392.786 6 121382879.225 6        41.250    23098397.966 4  94584105.149 4        26.500  
G23  24242260.440 5 127393933.703 5        34.000    24242268.120 3  99268048.474 3        21.250  
G25  24562130.438 5 129074848.994 5        35.500    24562139.738 4 100577848.138 4        29.500  
G26  21612199.596 7 113572891.879 7        45.500    21612208.496 8  88498394.014 8        50.000  
G29  20894702.122 8 109802424.535 8        50.000    20894708.002 9  85560364.423 9        55.000  
R07  21294175.360 8 113989407.479 8        49.750    21294179.120 7  88658431.832 7        46.500  
R08  23848147.564 5 127705735.957 5        34.250    23848148.604 5  99326702.602 5        35.750  
R12  23224159.928 7 124059285.701 7        42.000    23224163.128 6  96490588.624 6        38.000  
R13  20963141.944 6 111941997.442 6        40.750    20963143.204 6  87066027.676 6        38.750  
R14  21898189.296 8 116729681.026 8        48.250    21898191.856 7  90789799.894 7        44.250  
R21  23492672.484 6 125714048.369 6        41.500    23492674.924 6  97777614.302 6        37.750  
R22  19965991.208 7 106579810.660 7        43.000    19965992.248 6  82895446.307 6        36.500  
R24  23941807.184 6 128027626.675 6        38.000    23941810.544 5  99577038.459 5        34.000  
> 2021 11 07 00 22  0.0000000  0 17                     
G05  21355950.218 8 112226298.862 8        48.000    21355955.758 8  87449090.300 8        52.250  
G15  24994558.474 5 131347285.306 5        35.250    24994565.814 4 102348565.721 4        26.000  
G16  23396882.504 6 122951455.476 6        41.500    23396887.544 4  95806360.735 4        26.750  
G18  20808116.202 7 109347404.428 7        47.750    20808122.062 7  85205806.329 7        43.250  
G20  23130402.346 6 121551085.374 6        41.500    23130407.006 4  94715174.898 4        28.250  
G23  24198057.380 6 127161636.365 6        37.250    24198063.460 3  99087037.678 3        22.500  
G25  24607462.676 5 129313070.354 5        33.500    24607471.876 4 100763475.202 4        26.500  
G26  21608585.476 7 113553899.887 7        47.000    21608594.496 8  88483595.055 8        50.250  
G29  20914811.202 8 109908098.698 8        50.750    20914817.122 9  85642707.918 9        54.750  
R07  21264316.660 8 113829569.794 8        49.750    21264320.200 7  88534113.662 7        45.500  
R08  23797570.204 6 127434900.173 6        36.000    23797572.104 6  99116052.643 6        36.000  
R12  23274298.228 6 124327116.166 6        41.000    23274301.668 6  96698901.122 6        39.500  
R13  20987781.600 6 112073574.386 6        40.750    20987783.040 6  87168365.255 6        39.500  
R14  21874612.396 8 116604000.912 8        48.500    21874614.456 7  90692048.709 7        43.250  
R21  23533616.544 6 125933147.100 6        40.250    23533617.864 6  97948024.387 6        36.500  
R22  19987126.068 7 106692627.744 7        43.000    19987127.168 6  82983192.921 6        36.000  
R24  23900339.864 6 127805867.240 6        38.250    23900341.544 6  99404559.065 6        36.000  
> 2021 11 07 00 23  0.0000000  0 17                     
G05  21368572.038 8 112292630.518 8        48.000    21368578.198 8  87500777.317 8        52.000  
G15  24954835.294 6 131138539.262 6        36.250    24954842.654 4 102185906.515 4        27.250  
G16  23364266.446 7 122780055.784 7        42.000    23364271.386 4  95672802.535 4        27.500  
G18  20787093.322 8 109236927.943 8        48.000    20787099.342 7  85119720.791 7        43.000  
G20  23162676.786 6 121720688.827 6        40.750    23162680.926 4  94847333.450 4        26.000  
G23  24153927.900 6 126929739.052 6        39.750    24153934.320 4  98906338.485 4        25.250  
G25  24652821.636 5 129551439.861 5        31.750    24652832.516 4 100949217.571 4        27.500  
G26  21605429.476 7 113537315.386 7        46.000    21605438.496 8  88470672.064 8        50.250  
G29  20935233.762 8 110015420.243 8        50.250    20935239.822 9  85726335.086 9        55.000  
R07  21234942.880 8 113672330.062 8        49.750    21234945.940 7  88411816.093 7        46.500  
R08  23747036.584 6 127164299.950 6        36.500    23747040.064 6  98905585.936 6        38.500  
R12  23324530.988 7 124595444.132 7        43.000    23324533.828 6  96907600.598 6        41.750  
R13  21012960.440 6 112208028.833 6        40.000    21012962.780 6  87272940.905 6        39.000  
R14  21851573.936 8 116481191.424 8        49.000    21851576.076 7  90596530.226 7        44.250  
R21  23574615.224 6 126152543.212 6        39.750    23574618.124 6  98118665.753 6        38.250  
R22  20008551.708 7 106806999.234 7        42.250    20008552.648 6  83072148.520 6        37.000  
R24  23858909.424 6 127584321.777 6        40.250    23858911.644 6  99232246.021 6        36.000  
> 2021 11 07 00 24  0.0000000  0 17                     
G05  21381658.358 8 112361397.710 8        48.750    21381664.318 8  87554362.150 8        52.000  
G15  24915170.274 5 130930099.523 5        33.500    24915177.194 4 102023485.960 4        25.250  
G16  23331958.166 6 122610274.850 6        41.750    23331963.146 4  95540505.705 4        25.750  
G18  20766372.802 8 109128042.242 8        48.000    20766378.822 7  85034874.827 7        43.250  
G20  23195212.486 6 121891666.772 6        39.750    23195217.106 4  94980562.996 4        26.000  
G23  24109878.540 6 126698257.898 6        39.500    24109885.180 4  98725963.603 4        24.750  
G25  24698207.136 6 129789934.606 6        36.750    24698217.116 5 101135057.542 5        35.500  
G26  21602732.196 7 113523137.892 7        46.250    21602740.496 8  88459624.665 8        50.000  
G29  20955968.422 8 110124380.335 8        50.500    20955974.262 9  85811239.041 9        55.750  
R07  21206059.320 8 113517713.954 8        50.250    21206062.820 7  88291559.145 7        46.750  
R08  23696555.264 6 126893964.435 6        37.250    23696556.864 6  98695325.075 6        38.500  
R12  23374848.248 7 124864233.215 7        44.000    23374851.448 6  97116658.718 6        41.500  
R13  21038673.400 6 112345330.907 6        39.750    21038674.100 6  87379731.376 6        38.500  
R14  21829076.456 8 116361272.017 8        49.000    21829078.796 7  90503259.566 7        43.500  
R21  23615668.504 6 126372224.868 6        40.750    23615671.004 6  98289529.241 6        37.000  
R22  20030266.248 7 106922912.024 7        43.000    20030267.188 6  83162302.918 6        36.750  
R24  23817519.844 6 127362995.443 6        38.250    23817523.164 6  99060103.435 6        38.750  
> 2021 11 07 00 25  0.0000000  0 18                     
G05  21395205.718 8 112432590.103 8        48.500    21395211.678 8  87609836.751 8        52.000  
G13  24978833.754 5 131264660.680 5        34.750    24978838.754 2 102284174.348 2        16.250  
G15  24875569.976 6 130721992.966 6        36.000    24875576.116 4 101861325.062 4        29.500  
G16  23299962.486 6 122442137.378 6        40.750    23299967.966 4  95409489.484 4        25.750  
G18  20745956.762 8 109020755.259 8        49.500    20745962.862 7  84951274.621 7        43.500  
G20  23228006.786 6 122064001.858 6        40.000    23228012.106 4  95114850.078 4        26.250  
G23  24065911.740 6 126467214.238 6        37.750    24065919.180 4  98545929.656 4        25.750  
G25  24743611.516 6 130028537.190 6        38.250    24743621.356 6 101320981.551 6        36.500  
G26  21600493.056 7 113511371.618 7        47.000    21600501.576 8  88450456.130 8        50.000  
G29  20977014.022 8 110234974.936 8        50.500    20977019.802 9  85897416.641 9        55.000  
R07  21177671.100 8 113365751.423 8        50.000    21177674.440 7  88173366.080 7        46.250  
R08  23646127.504 6 126623927.208 6        36.750    23646128.964 6  98485296.204 6        37.500  
R12  23425247.544 7 125133452.729 7        42.000    23425250.224 6  97326051.592 6        39.250  
R13  21064914.440 6 112485457.966 6        39.750    21064916.260 6  87488719.052 6        38.500  
R14  21807127.256 8 116244266.317 8        49.000    21807128.836 7  90412255.143 7        44.000  
R21  23656774.404 6 126592185.360 6        41.500    23656774.964 6  98460609.570 6        37.000  
R22  20052267.968 7 107040358.816 7        43.000    20052269.248 6  83253650.417 6        36.500  
R24  23776171.864 6 127141897.757 6        39.750    23776176.464 6  98888138.726 6        36.250  
> 2021 11 07 00 26  0.0000000  0 18                     
G05  21409212.718 8 112506196.607 8        48.500    21409218.378 8  87667192.474 8        52.000  
G13  24944621.934 5 131084875.262 5        34.000    24944627.874 2 102144081.933 2        15.500  
G15  24836036.336 6 130514246.702 6        36.000    24836043.476 4 101699444.854 4        28.000  
G16  23268283.506 6 122275664.142 6        40.000    23268288.406 4  95279770.095 4        25.000  
G18  20725846.462 8 108915073.816 8        50.250    20725852.362 7  84868925.465 7        44.000  
G20  23261055.086 6 122237675.333 6        40.500    23261060.266 4  95250180.053 4        25.500  
G23  24022033.780 6 126236628.524 6        37.500    24022039.960 4  98366252.585 4        25.000  
G25  24789033.296 5 130267229.102 5        35.750    24789043.516 5 101506975.181 5        34.000  
G26  21598713.356 7 113502019.383 7        47.750    21598721.876 8  88443168.662 8        50.000  
G29  20998369.200 8 110347198.946 8        50.250    20998375.200 9  85984863.923 9        55.000  
R07  21149784.180 8 113216471.555 8        50.000    21149787.680 7  88057259.541 7        46.750  
R08  23595762.424 6 126354222.286 6        36.500    23595763.104 6  98275525.831 6        37.250  
R12  23475720.144 7 125403070.852 7        42.250    23475722.484 6  97535754.576 6        38.750  
R13  21091682.000 6 112628383.412 6        40.750    21091681.420 6  87599883.256 6        38.500  
R14  21785727.716 8 116130196.601 8        49.000    21785730.176 7  90323534.245 7        44.250  
R21  23697930.644 7 126812416.773 7        42.000    23697931.244 6  98631900.570 6        38.000  
R22  20074555.168 7 107159331.018 7        42.500    20074556.648 6  83346184.348 6        37.250  
R24  23734871.044 6 126921038.455 6        40.500    23734874.024 6  98716359.349 6        38.000  
> 2021 11 07 00 27  0.0000000  0 18                     
G05  21423676.398 8 112582203.930 8        49.250    21423682.218 8  87726418.965 8        52.000  
G13  24910577.134 5 130905970.536 5        35.000    24910583.314 3 102004675.675 3        18.250  
G15  24796576.776 6 130306885.339 6        37.000    24796583.796 5 101537864.620 5        30.500  
G16  23236925.506 6 122110876.798 6        41.000    23236930.506 4  95151364.346 4        25.750  
G18  20706042.682 8 108811003.924 8        50.750    20706048.462 7  84787832.086 7        43.750  
G20  23294355.526 6 122412667.415 6        40.000    23294360.466 4  95386537.534 4        26.500  
G23  23978244.762 6 126006520.403 6        37.250    23978252.002 3  98186947.615 3        22.750  
G25  24834468.456 5 130505991.310 5        32.000    24834478.216 5 101693023.569 5        30.000  
G26  21597393.116 7 113495082.913 7        47.750    21597401.736 8  88437763.606 8        50.000  
G29  21020033.740 8 110461046.189 8        50.500    21020039.620 9  86073576.053 9        55.250  
R07  21122404.320 8 113069902.066 8        50.500    21122407.420 7  87943261.064 7        46.500  
R08  23545464.124 5 126084881.551 5        35.250    23545465.064 6  98066038.630 6        37.000  
R12  23526260.684 6 125673055.406 6        41.250    23526264.644 6  97745742.548 6        37.250  
R13  21118964.120 6 112774081.238 6        40.500    21118965.980 6  87713203.752 6        38.750  
R14  21764884.056 8 116019084.451 8        49.500    21764885.756 7  90237113.684 7        44.750  
R21  23739133.644 6 127032910.627 6        39.750    23739135.944 6  98803395.726 6        36.750  
R22  20097126.208 7 107279818.660 7        42.500    20097127.808 6  83439896.959 6        37.000  
R24  23693615.304 7 126700425.193 7        42.250    23693618.344 6  98544771.338 6        37.500  
> 2021 11 07 00 28  0.0000000  0 18                     
G05  21438595.198 8 112660602.096 8        50.000    21438600.818 8  87787508.454 8        51.750  
G13  24876704.836 5 130727973.328 5        33.250    24876711.316 2 101865976.612 2        16.750  
G15  24757195.696 6 130099935.949 6        36.750    24757202.516 5 101376605.396 5        30.500  
G16  23205892.686 6 121947797.997 6        41.500    23205897.526 4  95024289.963 4        27.000  
G18  20686546.642 8 108708552.659 8        49.250    20686552.682 7  84707999.946 7        44.000  
G20  23327902.826 6 122588959.677 6        39.500    23327907.906 4  95523908.146 4        25.000  
G23  23934551.522 6 125776910.832 6        39.500    23934558.902 4  98008031.138 4        26.250  
G25  24879912.156 5 130744805.976 5        32.250    24879922.996 4 101879112.858 4        25.750  
G26  21596533.616 8 113490564.801 8        48.000    21596542.156 8  88434242.992 8        50.250  
G29  21042005.380 8 110576510.853 8        49.500    21042011.840 9  86163548.504 9        54.750  
R07  21095535.740 8 112926071.573 8        50.250    21095538.960 7  87831392.932 7        46.500  
R08  23495242.024 6 125815938.978 6        36.500    23495242.324 6  97856861.094 6        38.250  
R12  23576866.424 7 125943375.113 7        42.000    23576868.984 6  97955991.190 6        38.000  
R13  21146763.440 6 112922524.542 6        39.750    21146764.960 6  87828659.620 6        38.250  
R14  21744598.396 8 115910951.470 8        50.000    21744600.196 7  90153010.240 7        44.250  
R21  23780386.264 6 127253659.808 6        40.750    23780388.324 6  98975089.473 6        37.000  
R22  20119981.088 7 107401814.256 7        42.500    20119981.168 6  83534782.411 6        37.500  
R24  23652407.684 6 126480067.883 6        41.250    23652410.544 6  98373382.428 6        38.250  
> 2021 11 07 00 29  0.0000000  0 18                     
G05  21453965.658 8 112741374.558 8        48.250    21453971.198 8  87850448.051 8        51.500  
G13  24843010.436 5 130550906.849 5        33.500    24843016.916 2 101728002.839 2        17.250  
G15  24717898.116 6 129893421.823 6        38.000    24717904.096 5 101215685.382 5        31.500  
G16  23175188.746 6 121786445.123 6        41.250    23175193.506 4  94898560.470 4        28.000  
G18  20667359.244 8 108607722.336 8        49.500    20667365.324 7  84629430.889 7        44.500  
G20  23361692.966 6 122766529.725 6        38.750    23361698.306 3  95662274.364 3        23.500  
G23  23890956.882 6 125547816.063 6        41.750    23890963.322 4  97829515.787 4        27.750  
G25  24925362.894 5 130983650.665 5        34.000    24925373.254 4 102065225.602 4        25.500  
G26  21596133.096 7 113488462.616 7        47.750    21596142.196 8  88432604.917 8        50.000  
G29  21064284.260 8 110693584.036 8        50.000    21064290.160 9  86254774.359 9        54.750  
R07  21069182.460 8 112785002.923 8        50.750    21069185.840 7  87721672.916 7        46.500  
R08  23445098.464 6 125547423.675 6        36.500    23445099.424 6  97648015.948 6        38.500  
R12  23627528.004 7 126213994.696 7        42.750    23627529.404 6  98166473.068 6        39.000  
R13  21175070.740 6 113073682.778 6        39.500    21175071.780 6  87946227.110 6        38.000  
R14  21724874.556 8 115805814.213 8        49.000    21724876.556 7  90071236.823 7        44.750  
R21  23821684.684 6 127474652.649 6        39.000    23821686.864 5  99146972.642 5        35.750  
R22  20143113.988 7 107525304.438 7        42.000    20143115.868 6  83630830.329 6        36.500  
R24  23611247.624 6 126259971.376 6        41.500    23611251.684 6  98202196.339 6        38.000  
> 2021 11 07 00 30  0.0000000  0 17                     
G05  21469785.098 8 112824507.485 8        49.000    21469790.878 8  87915226.955 8        51.500  
G13  24809498.336 5 130374797.079 5        34.750    24809504.476 2 101590774.575 2        17.250  
G15  24678687.056 6 129687368.598 6        37.500    24678693.976 5 101055124.511 5        31.750  
G16  23144815.806 7 121626839.517 7        42.000    23144821.106 4  94774192.449 4        27.250  
G18  20648481.664 8 108508518.956 8        48.500    20648487.504 7  84552129.573 7        44.500  
G20  23395722.684 6 122945358.264 6        39.750    23395728.484 3  95801621.296 3        23.500  
G23  23847463.222 6 125319256.207 6        40.750    23847470.102 4  97651417.236 4        24.250  
G26  21596193.256 7 113488777.380 7        46.500    21596202.016 8  88432850.177 8        50.000  
G29  21086867.200 8 110812258.713 8        50.500    21086873.100 9  86347248.114 9        54.500  
R07  21043350.500 8 112646722.815 8        50.750    21043353.500 7  87614121.740 7        46.500  
R08  23395041.504 6 125279369.649 6        36.750    23395041.864 6  97439529.565 6        39.500  
R12  23678238.644 7 126484882.426 7        42.500    23678240.584 6  98377163.476 6        39.250  
R13  21203881.060 6 113227528.589 6        38.750    21203882.040 6  88065884.919 6        37.500  
R14  21705717.136 8 115703693.142 8        49.250    21705719.356 7  89991809.303 7        44.500  
R21  23863025.484 6 127695881.472 6        39.750    23863027.324 5  99319039.542 5        35.000  
R22  20166527.188 7 107650280.485 7        42.750    20166528.188 6  83728033.915 6        37.250  
R24  23570137.824 6 126040144.806 6        41.000    23570141.544 6  98031220.197 6        38.250  
> 2021 11 07 00 31  0.0000000  0 18                     
G05  21486051.318 7 112909988.914 7        47.250    21486057.598 8  87981835.869 8        51.500  
G13  24776172.636 5 130199670.920 5        35.000    24776178.036 2 101454312.709 2        17.250  
G15  24639569.076 6 129481802.619 6        36.000    24639575.076 4 100894943.270 4        29.250  
G16  23114781.266 6 121469002.945 6        40.750    23114786.246 4  94651202.920 4        26.500  
G18  20629914.824 8 108410948.967 8        48.500    20629920.404 7  84476101.045 7        44.500  
G20  23429988.424 6 123125426.820 6        39.750    23429993.584 3  95941934.438 3        21.500  
G23  23804074.842 6 125091251.895 6        40.750    23804082.002 4  97473751.600 4        25.250  
G25  25016269.014 5 131461356.222 5        35.000    25016277.674 5 102437463.629 5        31.250  
