     3.02           OBSERVATION DATA    M                   RINEX VERSION / TYPE
HIVE                geosystems.aero     18-JAN-22 11:16     PGM / RUN BY / DATE 
KURO                                                        MARKER NAME         
1071                                                        MARKER NUMBER       
                                                            MARKER TYPE         
geosystems.aero     Industrial Geodetic Systems             OBSERVER / AGENCY   
5431C01085          IGS GR220           4.94,17/FEB/2015    REC # / TYPE / VERS 
                    NOV702GG        NONE                    ANT # / TYPE        
  2810298.9709  2269083.5722  5239362.9499                  APPROX POSITION XYZ 
        0.0000        0.0000        0.0000                  ANTENNA: DELTA H/E/N
G  12  C1C L1C S1C C2W L2W S2W C2X L2X S2X C5X L5X S5X      SYS / # / OBS TYPES 
R  9   C1C L1C S1C C2C L2C S2C C2P L2P S2P                  SYS / # / OBS TYPES 
C  6   C1I L1I S1I C7I L7I S7I                              SYS / # / OBS TYPES 
    60.000                                                  INTERVAL            
  2021    11    07    00    00   00.0000000     GPS         TIME OF FIRST OBS   
  2021    11    07    06    07   00.0000000     GPS         TIME OF LAST OBS    
 C1C    0.000 C1P    0.000 C2C    0.000 C2P    0.000        GLONASS COD/PHS/BIS 
    18                                                      LEAP SECONDS        
    56                                                      # OF SATELLITES     
   G01   109   109   109     0     0     0   109   109   109PRN / # OF OBS      
           0     0     0                                    PRN / # OF OBS      
   G02    14    14    14    12    12    12     0     0     0PRN / # OF OBS      
           0     0     0                                    PRN / # OF OBS      
   G05   140   140   140     0     0     0   140   140   140PRN / # OF OBS      
           0     0     0                                    PRN / # OF OBS      
   G07    82    82    82     0     0     0    82    82    82PRN / # OF OBS      
           0     0     0                                    PRN / # OF OBS      
   G08   256   256   256     0     0     0   256   256   256PRN / # OF OBS      
           0     0     0                                    PRN / # OF OBS      
   G10   316   316   316     0     0     0   316   316   316PRN / # OF OBS      
           0     0     0                                    PRN / # OF OBS      
   G13   183   183   183   141   141   141     0     0     0PRN / # OF OBS      
           0     0     0                                    PRN / # OF OBS      
   G14   115   115   115     0     0     0   115   115   115PRN / # OF OBS      
           0     0     0                                    PRN / # OF OBS      
   G15   240   240   240     0     0     0   240   240   240PRN / # OF OBS      
           0     0     0                                    PRN / # OF OBS      
   G16   254   254   254   242   242   242     0     0     0PRN / # OF OBS      
           0     0     0                                    PRN / # OF OBS      
   G17    24    24    24     0     0     0    24    24    24PRN / # OF OBS      
           0     0     0                                    PRN / # OF OBS      
   G18   281   281   281     0     0     0   281   281   281PRN / # OF OBS      
         122   122   122                                    PRN / # OF OBS      
   G20    74    74    74    57    57    57     0     0     0PRN / # OF OBS      
           0     0     0                                    PRN / # OF OBS      
   G21   171   171   171   161   161   161     0     0     0PRN / # OF OBS      
           0     0     0                                    PRN / # OF OBS      
   G22    99    99    99    99    99    99     0     0     0PRN / # OF OBS      
           0     0     0                                    PRN / # OF OBS      
   G23   352   352   352     0     0     0   352   352   352PRN / # OF OBS      
           0     0     0                                    PRN / # OF OBS      
   G24   132   132   132     0     0     0   131   131   131PRN / # OF OBS      
           0     0     0                                    PRN / # OF OBS      
   G25    36    36    36     0     0     0    36    36    36PRN / # OF OBS      
           0     0     0                                    PRN / # OF OBS      
   G26   189   189   189     0     0     0   189   189   189PRN / # OF OBS      
           0     0     0                                    PRN / # OF OBS      
   G27   327   327   327     0     0     0   327   327   327PRN / # OF OBS      
           0     0     0                                    PRN / # OF OBS      
   G29   145   145   145     0     0     0   145   145   145PRN / # OF OBS      
           0     0     0                                    PRN / # OF OBS      
   G30    35    35    35     0     0     0    34    34    34PRN / # OF OBS      
           0     0     0                                    PRN / # OF OBS      
   G31    49    49    49     0     0     0    49    49    49PRN / # OF OBS      
           0     0     0                                    PRN / # OF OBS      
   G32   183   183   183     0     0     0   183   183   183PRN / # OF OBS      
           0     0     0                                    PRN / # OF OBS      
   R01   282   282   282   282   282   282     0     0     0PRN / # OF OBS      
   R02   194   194   194   194   194   194     0     0     0PRN / # OF OBS      
   R03   105   105   105   105   105   105     0     0     0PRN / # OF OBS      
   R04     4     4     4     4     4     4     0     0     0PRN / # OF OBS      
   R05    12    12    12    12    12    12     0     0     0PRN / # OF OBS      
   R06    67    67    67     0     0     0     0     0     0PRN / # OF OBS      
   R07   182   182   182   182   182   182     0     0     0PRN / # OF OBS      
   R08   258   258   258   258   258   258     0     0     0PRN / # OF OBS      
   R09   127   127   127   127   127   127     0     0     0PRN / # OF OBS      
   R10   106   106   106     0     0     0     0     0     0PRN / # OF OBS      
   R12    48    48    48    48    48    48     0     0     0PRN / # OF OBS      
   R13    69    69    69    69    69    69     0     0     0PRN / # OF OBS      
   R14   182   182   182   182   182   182     0     0     0PRN / # OF OBS      
   R15   197   197   197   197   197   197     0     0     0PRN / # OF OBS      
   R16   132   132   132   126   126   126     0     0     0PRN / # OF OBS      
   R17   250   250   250   250   250   250     0     0     0PRN / # OF OBS      
   R18   147   147   147   147   147   147     0     0     0PRN / # OF OBS      
   R19     9     9     9     9     9     9     0     0     0PRN / # OF OBS      
   R21    35    35    35    35    35    35     0     0     0PRN / # OF OBS      
   R22    83    83    83    82    82    82     1     1     1PRN / # OF OBS      
   R23   267   267   267     0     0     0     0     0     0PRN / # OF OBS      
   R24   351   351   351   351   351   351     0     0     0PRN / # OF OBS      
   C02   314   314   314   311   311   311                  PRN / # OF OBS      
   C05   367   367   367   367   367   367                  PRN / # OF OBS      
   C06   254   254   254   254   254   254                  PRN / # OF OBS      
   C08   290   290   290   290   290   290                  PRN / # OF OBS      
   C09   225   225   225   225   225   225                  PRN / # OF OBS      
   C11   175   175   175   175   175   175                  PRN / # OF OBS      
   C12    31    31    31    31    31    31                  PRN / # OF OBS      
   C13   367   367   367   367   367   367                  PRN / # OF OBS      
   C14   325   325   325   325   325   325                  PRN / # OF OBS      
   C16   239   239   239   239   239   239                  PRN / # OF OBS      
                                                            END OF HEADER       
> 2021 11 07 00 00  0.0000000  0 26                     
G02  25425616.062 6 133611775.504 6        36.000    25425620.208 3 104113175.808 3        18.000                                                                                                  
G05  21522994.178 7 113104543.246 7        43.000                                                    21523000.289 7  88133414.519 7        44.000                                                  
G16  23806196.776 6 125101979.819 6        37.000    23806203.084 3  97481842.582 3        20.000                                                                                                  
G18  21148718.861 7 111137676.803 7        45.000                                                    21148725.241 7  86600791.326 7        47.000                                                  
G20  22784251.878 6 119732560.884 6        39.000    22784257.650 3  93298104.203 3        22.000                                                                                                  
G23  25223025.871 5 132548575.624 5        33.000                                                    25223033.841 6 103284604.162 6        38.000                                                  
G25  23775727.876 5 124942333.404 5        35.000                                                    23775739.884 7  97357662.266 7        42.000                                                  
G26  21447776.367 7 112708597.096 7        44.000                                                    21447786.284 7  87824880.991 7        46.000                                                  
G29  20730517.466 7 108939330.408 7        46.000                                                    20730524.345 7  84887795.191 7        45.000                                                  
G31  24550585.446 6 129014660.966 6        36.000                                                    24550592.630 6 100530901.753 6        38.000                                                  
R05  24009880.587 5 128346322.433 5        32.000    24009882.981 5  99824917.336 5        35.000                                                  
R06  21576712.357 5 115137456.185 5        32.000                                                                                                  
R07  22460980.042 6 120234563.108 6        39.000    22460985.492 7  93515773.815 7        42.000                                                  
R12  22059157.357 7 117835212.694 7        43.000    22059162.307 7  91649608.181 7        43.000                                                  
R13  20255409.075 6 108162557.001 6        37.000    20255411.738 6  84126432.128 6        36.000                                                  
R14  22236142.096 6 118531850.070 6        40.000    22236147.224 7  92190838.215 7        42.000                                                  
R21  23068882.077 6 123446403.653 6        38.000    23068886.759 6  96013976.459 6        40.000                                                  
R22  19723362.222 5 105284073.572 5        34.000    19723364.420 5  81887612.755 5        31.000                                                  
R23  20754762.281 7 111023736.759 7        43.000                                                                                                  
R24  24349010.019 6 130204400.113 6        36.000    24349014.022 6 101270088.805 6        36.000                                                  
C02                                                  39909317.425 6 160698154.706 6        38.000  
C05                                                  38950549.547 6 156838118.128 6        39.000  
C08                                                  37525653.625 7 151100187.858 7        43.000  
C11                                                  21797527.539 8  87769598.456 8        48.000  
C12                                                  25345867.703 6 102057408.780 6        41.000  
C13                                                  36652260.509 7 147583059.819 7        44.000  
> 2021 11 07 00 01  0.0000000  0 26                     
G02  25461789.344 6 133801865.138 6        38.000    25461793.096 3 104261297.596 3        19.000                                                                                                  
G05  21524190.063 7 113110828.570 7        45.000                                                    21524196.174 7  88138312.204 7        45.000                                                  
G16  23768094.069 6 124901747.781 6        39.000    23768100.394 3  97325817.693 3        20.000                                                                                                  
G18  21122659.429 7 111000736.008 7        45.000                                                    21122666.416 7  86494084.238 7        46.000                                                  
G20  22809088.301 6 119863081.742 6        39.000    22809095.628 3  93399808.773 3        22.000                                                                                                  
G23  25178331.35315 132312832.49715        33.0001                                                   25178339.26916 103100908.15916        40.0001                                                 
G25  23820012.354 6 125175045.827 6        37.000                                                    23820023.201 6  97538996.595 6        41.000                                                  
G26  21435596.787 7 112644592.181 7        43.000                                                    21435606.168 7  87775007.030 7        46.000                                                  
G29  20747466.252 7 109028396.895 7        46.000                                                    20747473.364 7  84957197.639 7        45.000                                                  
G31  24586422.397 6 129202982.404 6        37.000                                                    24586429.098 6 100677645.687 6        38.000                                                  
R05  24048640.553 5 128553524.591 5        34.000    24048644.949 5  99986074.482 5        35.000                                                  
R06  21574903.17215 115127969.46915        32.0001                                                                                                 
R07  22421340.224 6 120022370.357 6        38.000    22421346.835 7  93350735.060 7        43.000                                                  
R12  22106360.972 7 118087357.611 7        43.000    22106364.707 7  91845720.876 7        43.000                                                  
R13  20267459.426 6 108226912.445 6        36.000    20267463.518 6  84176486.351 6        36.000                                                  
R14  22201079.177 6 118344945.157 6        39.000    22201084.181 6  92045467.720 6        38.000                                                  
R21  23110392.014 6 123668529.663 6        38.000    23110396.017 6  96186741.096 6        41.000                                                  
R22  19742446.249 5 105385940.210 5        34.000    19742448.715 5  81966842.379 5        33.000                                                  
R23  20724715.448 7 110863008.846 7        42.000                                                                                                  
R24  24306302.375 6 129976025.671 6        37.000    24306307.004 6 101092464.313 6        37.000                                                  
C02                                                  39909046.369 6 160696957.776 6        39.000  
C05                                                  38949961.210 6 156835752.752 6        39.000  
C08                                                  37534894.161 7 151137395.606 7        43.000  
C11                                                  21811543.590 8  87826032.556 8        48.000  
C12                                                  25380290.052 7 102196010.984 7        42.000  
C13                                                  36657659.402 7 147604800.323 7        43.000  
> 2021 11 07 00 02  0.0000000  0 26                     
G02  25497976.027 6 133992033.637 6        36.000    25497980.209 3 104409480.820 3        18.000                                                                                                  
G05  21525883.974 7 113119731.857 7        44.000                                                    21525890.336 7  88145249.841 7        44.000                                                  
G16  23730207.112 6 124702657.097 6        36.000    23730214.242 3  97170682.092 3        19.000                                                                                                  
G18  21096904.056 7 110865389.023 7        45.000                                                    21096911.150 7  86388619.071 7        47.000                                                  
G20  22834278.620 6 119995452.709 6        39.000    22834284.982 3  93502954.979 3        23.000                                                                                                  
G23  25133624.683 5 132077902.865 5        34.000                                                    25133633.707 6 102917846.120 6        39.000                                                  
G25  23864393.021 6 125408270.383 6        37.000                                                    23864403.671 6  97720729.930 6        40.000                                                  
G26  21423845.921 7 112582841.955 7        43.000                                                    21423855.177 7  87726889.962 7        45.000                                                  
G29  20764722.975 7 109119082.252 7        45.000                                                    20764729.783 7  85027861.547 7        45.000                                                  
G31  24622395.689 6 129392027.832 6        37.000                                                    24622402.926 6 100824953.765 6        37.000                                                  
R05  24087736.313 5 128762509.380 5        33.000    24087739.958 5 100148618.065 5        33.000                                                  
R06  21573718.759 5 115121645.537 5        32.000                                                                                                  
R07  22382027.319 6 119811930.773 6        38.000    22382034.341 7  93187059.909 7        42.000                                                  
R12  22153793.722 7 118340737.098 7        42.000    22153797.510 7  92042793.729 7        42.000                                                  
R13  20280131.047 6 108294570.785 6        36.000    20280134.478 6  84229109.486 6        36.000                                                  
R14  22166435.234 6 118160269.663 6        41.000    22166439.880 6  91901831.331 6        41.000                                                  
R21  23151963.331 6 123890983.243 6        39.000    23151966.083 6  96359760.522 6        40.000                                                  
R22  19761850.114 5 105489527.445 5        35.000    19761853.831 5  82047410.198 5        31.000                                                  
R23  20694934.737 7 110703694.397 7        43.000                                                                                                  
R24  24263636.223 6 129747879.914 6        36.000    24263642.156 5 100915017.692 5        35.000                                                  
C02                                                  39908776.869 6 160695724.816 6        38.000  
C05                                                  38949375.749 6 156833393.739 6        39.000  
C08                                                  37544185.571 7 151174806.796 7        43.000  
C11                                                  21825785.934 8  87883378.975 8        48.000  
C12                                                  25414763.204 7 102334818.027 7        42.000  
C13                                                  36663119.156 7 147626783.200 7        43.000  
> 2021 11 07 00 03  0.0000000  0 25                     
G02  25534177.613 5 134182274.868 5        35.000    25534182.277 3 104557720.696 3        18.000                                                                                                  
G05  21528076.200 7 113131254.071 7        45.000                                                    21528083.169 7  88154228.197 7        45.000                                                  
G16  23692543.125 6 124504730.860 6        37.000    23692549.469 3  97016453.888 3        18.000                                                                                                  
G18  21071454.046 7 110731647.434 7        45.000                                                    21071460.836 7  86284404.857 7        47.000                                                  
G20  22859816.974 6 120129658.989 6        38.000    22859822.639 3  93607531.335 3        21.000                                                                                                  
G23  25088913.850 5 131842938.681 5        33.000                                                    25088921.355 6 102734757.178 6        39.000                                                  
G25  23908868.037 5 125641990.595 5        35.000                                                    23908878.955 6  97902849.539 6        39.000                                                  
G26  21412526.449 7 112523358.578 7        43.000                                                    21412535.794 7  87680539.261 7        45.000                                                  
G29  20782286.956 7 109211383.485 7        46.000                                                    20782293.907 7  85099784.570 7        46.000                                                  
G31  24658502.998 6 129581774.886 6        37.000                                                    24658510.860 6 100972808.569 6        37.000                                                  
R05  24127159.41615 128972872.48615        32.0001   24127162.02515 100312234.80415        32.0001                                                 
R06  21573157.708 5 115118661.066 5        32.000                                                                                                  
R07  22343051.031 6 119603281.266 6        40.000    22343057.428 7  93024777.036 7        43.000                                                  
R12  22201452.819 7 118595320.875 7        42.000    22201456.410 7  92240803.273 7        42.000                                                  
R13  20293418.006 5 108365522.439 5        35.000    20293420.400 6  84284294.092 6        36.000                                                  
R14  22132213.750 7 117977857.164 7        42.000    22132219.414 6  91759954.950 6        40.000                                                  
R21  23193593.008 6 124113755.178 6        38.000    23193596.511 6  96533027.529 6        38.000                                                  
R22  19781578.319 6 105594825.036 6        36.000    19781578.588 5  82129308.343 5        33.000                                                  
R23  20665418.060 7 110545804.881 7        42.000                                                                                                  
R24  24221018.568 6 129519974.936 6        37.000    24221022.571 5 100737758.388 5        35.000                                                  
C05                                                  38948792.040 6 156831043.073 6        39.000  
C08                                                  37553527.317 7 151212420.641 7        44.000  
C11                                                  21840253.016 8  87941636.023 8        48.000  
C12                                                  25449286.156 7 102473827.239 7        42.000  
C13                                                  36668638.558 7 147649008.131 7        43.000  
> 2021 11 07 00 04  0.0000000  0 27                     
G02  25570391.511 6 134372577.701 6        36.000    25570394.460 2 104706008.650 2        16.000                                                                                                  
G05  21530766.542 7 113145391.677 7        43.000                                                    21530773.314 7  88165244.530 7        44.000                                                  
G16  23655104.591 6 124307989.836 6        37.000    23655110.131 3  96863149.248 3        19.000                                                                                                  
G18  21046310.705 7 110599519.087 7        45.000                                                    21046317.656 7  86181447.715 7        46.000                                                  
G20  22885701.326 6 120265681.915 6        39.000    22885706.419 3  93713523.223 3        22.000                                                                                                  
G23  25044198.139 5 131607958.425 5        34.000                                                    25044206.073 6 102551655.771 6        39.000                                                  
G25  23953435.399 6 125876186.694 6        36.000                                                    23953444.655 6  98085339.969 6        38.000                                                  
G26  21401640.265 7 112466150.288 7        43.000                                                    21401649.467 7  87635961.389 7        46.000                                                  
G29  20800157.658 7 109305293.883 7        45.000                                                    20800164.949 7  85172961.501 7        46.000                                                  
G31  24694739.357 6 129772198.733 6        37.000                                                    24694747.077 6 101121190.675 6        38.000                                                  
R05  24166901.946 5 129185327.427 5        32.000    24166906.931 5 100477477.389 5        31.000                                                  
R06  21573225.09215 115119543.27915        32.0001                                                                                                 
R07  22304415.094 6 119396456.113 6        39.000    22304420.026 6  92863913.103 6        41.000                                                  
R12  22249328.631 6 118851074.504 6        41.000    22249333.884 7  92439722.705 7        42.000                                                  
R13  20307320.266 6 108439753.521 6        36.000    20307321.356 6  84342029.350 6        36.000                                                  
R14  22098425.107 6 117797736.196 6        41.000    22098428.591 6  91619860.882 6        41.000                                                  
R21  23235281.171 6 124336832.946 6        38.000    23235284.852 6  96706532.427 6        40.000                                                  
R22  19801619.054 5 105701818.945 5        35.000    19801622.360 5  82212525.823 5        32.000                                                  
R23  20636169.650 7 110389348.186 7        43.000                                                                                                  
R24  24178443.744 6 129292317.556 6        37.000    24178450.034 6 100560691.556 6        37.000                                                  
C02                                                                                                
C05                                                  38948209.688 6 156828700.026 6        39.000  
C08                                                  37562918.275 7 151250233.824 7        44.000  
C11                                                  21854946.321 8  88000799.192 8        48.000  
C12                                                  25483857.337 6 102613033.570 6        41.000  
C13                                                  36674217.428 7 147671472.159 7        43.000  
C14                                                  26051414.370 6 104898699.002 6        41.000  
> 2021 11 07 00 05  0.0000000  0 25                     
G02  25606616.238 5 134562934.334 5        35.000    25606620.008 2 104854338.455 2        16.000                                                                                                  
G05  21533954.429 7 113162142.099 7        44.000                                                    21533961.095 7  88178296.827 7        45.000                                                  
G16  23617897.354 6 124112456.096 6        38.000    23617903.716 3  96710785.346 3        20.000                                                                                                  
G18  21021476.462 7 110469013.449 7        45.000                                                    21021483.323 7  86079755.019 7        46.000                                                  
G20  22911928.067 6 120403504.339 6        39.000    22911934.249 3  93820917.324 3        22.000                                                                                                  
G23  24999483.072 5 131372982.183 5        34.000                                                    24999491.381 6 102368557.407 6        38.000                                                  
G25  23998088.569 6 126110840.366 6        37.000                                                    23998098.843 6  98268186.973 6        40.000                                                  
G26  21391189.156 7 112411226.936 7        44.000                                                    21391198.054 7  87593163.965 7        45.000                                                  
G29  20818334.100 7 109400808.844 7        45.000                                                    20818340.765 7  85247388.746 7        45.000                                                  
G31  24731100.621 6 129963276.052 6        36.000                                                    24731108.930 6 101270082.070 6        37.000                                                  
R05  24206961.99015 129399790.81415        32.0001   24206967.92315 100644281.71915        30.0001                                                 
R07  22266124.923 6 119191490.378 6        40.000    22266131.731 7  92704495.374 7        43.000                                                  
R12  22297420.997 7 119107965.717 7        43.000    22297424.661 6  92639526.933 6        39.000                                                  
R13  20321831.182 6 108517251.934 6        36.000    20321833.701 6  84402305.866 6        36.000                                                  
R14  22065069.752 6 117619937.499 6        41.000    22065074.380 6  91481573.009 6        40.000                                                  
R21  23277024.048 6 124560205.774 6        38.000    23277027.408 6  96880266.816 6        39.000                                                  
R22  19821979.591 6 105810497.110 6        36.000    19821982.307 5  82297053.275 5        32.000                                                  
R23  20607191.527 7 110234334.050 7        43.000                                                                                                  
R24  24135920.062 6 129064917.765 6        37.000    24135924.815 6 100383825.131 6        38.000                                                  
C05                                                  38947629.74916 156825340.98416        39.0001 
C08                                                  37572357.318 7 151288244.151 7        43.000  
C11                                                  21869863.989 8  88060865.158 8        48.000  
C12                                                  25518477.175 7 102752432.913 7        42.000  
C13                                                  36679855.087 7 147694173.314 7        43.000  
C14                                                  26011853.229 6 104739401.285 6        40.000  
> 2021 11 07 00 06  0.0000000  0 27                     
G02  25642848.595 6 134753335.670 6        36.000    25642851.936 2 105002703.105 2        14.000                                                                                                  
G05  21537638.146 7 113181502.380 7        43.000                                                    21537644.526 7  88193382.767 7        44.000                                                  
G16  23580920.664 6 123918150.514 6        37.000    23580927.275 3  96559378.417 3        19.000                                                                                                  
G18  20996952.335 7 110340138.810 7        44.000                                                    20996958.876 7  85979333.259 7        46.000                                                  
G20  22938493.192 6 120543108.425 6        38.000    22938499.018 3  93929699.722 3        21.000                                                                                                  
G23  24954772.328 5 131138029.232 5        34.000                                                    24954780.601 6 102185477.211 6        36.000                                                  
G25  24042823.828 5 126345932.522 5        33.000                                                    24042835.211 6  98451375.602 6        41.000                                                  
G26  21381173.515 7 112358596.826 7        43.000                                                    21381183.289 7  87552153.489 7        45.000                                                  
G29  20836813.422 7 109497922.038 7        45.000                                                    20836821.052 7  85323061.344 7        46.000                                                  
G31  24767580.893 6 130154982.473 6        37.000                                                    24767588.219 6 101419463.653 6        37.000                                                  
R05  24247330.543 5 129615584.919 5        31.000    24247335.958 5 100812121.817 5        32.000                                                  
R06  21575235.393 5 115130152.830 5        30.000                                                                                                  
R07  22228189.040 6 118988419.001 6        40.000    22228195.634 7  92546551.018 7        42.000                                                  
R12  22345716.928 6 119365961.176 6        41.000    22345721.503 6  92840189.998 6        41.000                                                  
R13  20336955.344 6 108598003.374 6        36.000    20336956.845 6  84465112.538 6        36.000                                                  
R14  22032156.316 7 117444490.571 7        42.000    22032160.266 6  91345114.336 6        39.000                                                  
R21  23318820.926 6 124783862.326 6        40.000    23318822.445 6  97054221.877 6        40.000                                                  
R22  19842652.281 5 105920846.003 5        35.000    19842654.890 5  82382880.204 5        33.000                                                  
R23  20578485.031 7 110080771.177 7        43.000                                                                                                  
R24  24093444.769 6 128837783.745 6        37.000    24093449.397 6 100207165.384 6        36.000                                                  
C02                                                  39907711.982 6 160692225.214 6        39.000  
C05                                                  38947052.026 6 156823013.693 6        40.000  
C08                                                  37581845.841 7 151326448.800 7        44.000  
C11                                                  21885004.626 7  88121830.024 7        47.000  
C12                                                  25553144.277 7 102892020.650 7        43.000  
C13                                                  36685551.374 7 147717109.148 7        44.000  
C14                                                  25972308.777 6 104580174.461 6        41.000  
> 2021 11 07 00 07  0.0000000  0 27                     
G02  25679086.509 5 134943773.779 5        32.000    25679089.815 2 105151096.464 2        16.000                                                                                                  
G05  21541818.443 7 113203468.567 7        44.000                                                    21541824.787 7  88210499.269 7        44.000                                                  
G16  23544183.757 6 123725094.977 6        36.000    23544189.886 3  96408945.540 3        18.000                                                                                                  
G18  20972740.363 7 110212904.251 7        44.000                                                    20972747.171 7  85880189.461 7        47.000                                                  
G20  22965395.578 6 120684476.437 6        39.000    22965401.028 3  94039856.663 3        23.000                                                                                                  
G23  24910072.163 5 130903119.969 5        35.000                                                    24910079.400 6 102002431.059 6        38.000                                                  
G25  24087641.268 6 126581444.811 6        37.000                                                    24087652.668 6  98634891.646 6        40.000                                                  
G26  21371596.648 7 112308269.049 7        43.000                                                    21371605.993 7  87512937.040 7        45.000                                                  
G29  20855597.088 7 109596628.258 7        45.000                                                    20855603.789 7  85399975.282 7        46.000                                                  
G31  24804175.973 5 130347294.649 5        35.000                                                    24804184.479 6 101569317.196 6        38.000                                                  
R05  24288002.423 6 129833204.424 6        36.000    24288007.337 6 100981380.919 6        37.000                                                  
R06  21577181.008 5 115140533.068 5        31.000                                                                                                  
R07  22190614.702 6 118787276.406 6        40.000    22190620.134 7  92390106.852 7        42.000                                                  
R12  22394216.298 6 119625028.538 6        41.000    22394219.460 6  93041686.754 6        40.000                                                  
R13  20352683.998 6 108681993.703 6        37.000    20352685.463 6  84530438.311 6        36.000                                                  
R14  21999689.678 7 117271425.557 7        42.000    21999695.199 6  91210508.207 6        40.000                                                  
R21  23360666.568 6 125007792.138 6        38.000    23360669.141 6  97228389.467 6        38.000                                                  
R22  19863633.427 5 106032853.452 5        35.000    19863637.394 5  82469997.078 5        32.000                                                  
R23  20550050.519 7 109928668.769 7        42.000                                                                                                  
R24  24051019.474 6 128610924.681 6        37.000    24051025.245 6 100030719.523 6        37.000                                                  
C02                                                  39907448.86116 160691064.66416        39.0001 
C05                                                  38946476.822 6 156820694.572 6        40.000  
C08                                                  37591381.109 7 151364845.664 7        43.000  
C11                                                  21900367.287 7  88183690.449 7        47.000  
C12                                                  25587856.123 7 103031792.567 7        43.000  
C13                                                  36691305.592 7 147740277.738 7        43.000  
C14                                                  25932786.483 7 104421033.211 7        42.000  
> 2021 11 07 00 08  0.0000000  0 27                     
G02  25715332.142 5 135134240.266 5        33.000    25715336.03812 105300132.89912        14.0001                                                                                                 
G05  21546493.998 7 113228038.281 7        44.000                                                    21546500.306 7  88229644.519 7        44.000                                                  
G16  23507688.690 6 123533312.549 6        36.000    23507694.283 3  96259504.698 3        20.000                                                                                                  
G18  20948841.742 7 110087319.170 7        45.000                                                    20948848.622 7  85782330.972 7        47.000                                                  
G20  22992629.327 6 120827591.608 6        40.000    22992635.742 3  94151374.955 3        22.000                                                                                                  
G23  24865381.308 5 130668275.061 5        35.000                                                    24865389.867 6 101819435.034 6        39.000                                                  
G25  24132534.365 5 126817359.508 5        35.000                                                    24132544.371 6  98818721.165 6        40.000                                                  
G26  21362459.358 7 112260252.731 7        44.000                                                    21362468.883 7  87475521.729 7        46.000                                                  
G29  20874682.402 7 109696923.022 7        45.000                                                    20874689.764 7  85478127.053 7        45.000                                                  
G31  24840884.325 6 130540189.718 6        39.000                                                    24840891.812 6 101719624.973 6        37.000                                                  
R05  24328969.892 5 130052206.078 5        31.000    24328975.235 6 101151715.476 6        36.000                                                  
R06  21579754.48615 115153520.24015        30.0001                                                                                                 
R07  22153406.125 6 118588098.598 6        40.000    22153411.825 7  92235190.853 7        43.000                                                  
R12  22442909.778 7 119885135.409 7        44.000    22442912.298 6  93243992.051 6        41.000                                                  
R13  20369014.819 6 108769208.328 6        36.000    20369018.143 6  84598271.883 6        36.000                                                  
R14  21967675.572 7 117100772.733 7        42.000    21967680.236 6  91077778.251 6        41.000                                                  
R21  23402560.725 6 125231984.665 6        37.000    23402564.191 6  97402761.372 6        37.000                                                  
R22  19884926.387 5 106146507.499 5        35.000    19884928.638 5  82558394.666 5        32.000                                                  
R23  20521891.959 7 109778036.752 7        43.000                                                                                                  
R24  24008651.627 6 128384350.524 6        36.000    24008655.183 6  99854495.224 6        36.000                                                  
C02                                                  39907188.009 6 160689832.451 6        39.000  
C05                                                  38945902.386 6 156818384.358 6        39.000  
C08                                                  37600963.945 7 151403433.024 7        43.000  
C11                                                  21915952.273 8  88246443.374 8        48.000  
C12                                                  25622613.785 7 103171745.072 7        42.000  
C13                                                  36697116.652 7 147763677.478 7        44.000  
C14                                                  25893287.758 6 104261992.529 6        41.000  
> 2021 11 07 00 10  0.0000000  1 27                     
G02  25787828.71615 135516555.87615        33.0001   25787833.773 2 105597316.745 2        16.000                                                                                                  
G05  21557326.557 7 113284964.394 7        44.000                                                    21557333.616 7  88274002.577 7        45.000                                                  
G16  23435440.942 6 123153646.640 6        38.000    23435446.374 3  95963661.149 3        20.000                                                                                                  
G18  20901992.988 7 109841124.940 7        45.000                                                    20901999.868 7  85590491.374 7        47.000                                                  
G20  23048079.854 6 121118985.377 6        39.000    23048086.001 3  94378435.034 3        22.000                                                                                                  
G23  24776054.562 6 130198852.635 6        36.000                                                    24776061.621 6 101453651.440 6        38.000                                                  
G25  24222534.629 5 127290316.115 5        35.000                                                    24222545.565 6  99187258.665 6        40.000                                                  
G26  21345509.625 7 112171180.598 7        43.000                                                    21345519.024 7  87406114.859 7        45.000                                                  
G29  20913754.433 7 109902248.071 7        45.000                                                    20913761.652 7  85638120.570 7        45.000                                                  
G31  24914610.877 6 130927627.610 6        37.000                                                    24914618.650 5 102021524.541 5        35.000                                                  
R05  24411776.195 5 130494836.602 5        32.000    24411779.001 5 101495983.288 5        34.000                                                  
R06  21586773.403 5 115190707.382 5        31.000                                                                                                  
R07  22080115.577 6 118195767.658 6        40.000    22080120.920 7  91930044.683 7        43.000                                                  
R12  22540851.484 6 120408331.391 6        41.000    22540856.272 6  93650922.167 6        39.000                                                  
R13  20403479.286 6 108953243.135 6        36.000    20403482.807 6  84741410.005 6        37.000                                                  
R14  21905026.777 7 116766814.163 7        43.000    21905030.548 6  90818032.754 6        39.000                                                  
R21  23486489.810 6 125681110.536 6        37.000    23486493.456 6  97752081.494 6        38.000                                                  
R22  19928423.699 5 106378699.237 5        35.000    19928425.575 5  82738988.242 5        32.000                                                  
R23  20466403.478 7 109481214.343 7        43.000                                                                                                  
R24  23924075.093 6 127932086.997 6        37.000    23924079.561 6  99502734.947 6        38.000                                                  
C02                                                  39906668.59216 160687510.10216        40.0001 
C05                                                  38944760.234 6 156813786.821 6        39.000  
C08                                                  37620268.994 7 151481164.973 7        44.000  
C11                                                  21947781.935 7  88374607.964 7        47.000  
C12                                                  25692257.087 6 103452170.609 6        41.000  
C13                                                  36708908.546 7 147811157.723 7        43.000  
C14                                                  25814381.459 7 103944266.922 7        42.000  
> 2021 11 07 00 11  0.0000000  0 27                     
G02  25824081.783 5 135707054.290 5        33.000    25824083.516 2 105745757.026 2        16.000                                                                                                  
G05  21563482.400 7 113317312.905 7        44.000                                                    21563489.298 7  88299209.221 7        44.000                                                  
G16  23399695.927 5 122965807.646 5        35.000    23399702.235 3  95817293.154 3        18.000                                                                                                  
G18  20879044.999 7 109720533.861 7        45.000                                                    20879052.611 8  85496524.325 8        48.000                                                  
G20  23076289.109 6 121267229.198 6        39.000    23076294.630 3  94493949.707 3        19.000                                                                                                  
G23  24731423.139 5 129964317.121 5        35.000                                                    24731431.037 6 101270896.553 6        39.000                                                  
G25  24267635.275 5 127527322.673 5        34.000                                                    24267646.282 6  99371939.072 6        39.000                                                  
G26  21337700.558 7 112130141.571 7        44.000                                                    21337709.761 7  87374136.389 7        45.000                                                  
G29  20933739.487 7 110007268.755 7        45.000                                                    20933746.635 7  85719954.869 7        46.000                                                  
G31  24951622.663 6 131122124.818 6        37.000                                                    24951630.436 6 102173080.713 6        37.000                                                  
R05  24453596.464 5 130718401.661 5        31.000    24453601.324 5 101669867.123 5        31.000                                                  
R06  21591220.842 5 115214438.928 5        32.000                                                                                                  
R07  22044046.775 6 118002684.358 6        41.000    22044051.797 7  91779868.825 7        43.000                                                  
R12  22590089.380 6 120671356.740 6        41.000    22590095.169 6  93855497.371 6        40.000                                                  
R13  20421603.783 6 109050032.487 6        36.000    20421607.911 6  84816690.605 6        36.000                                                  
R14  21874399.612 7 116603568.044 7        42.000    21874405.651 6  90691063.528 6        39.000                                                  
R21  23528521.809 6 125906024.432 6        37.000    23528524.417 6  97927014.445 6        38.000                                                  
R22  19950623.565 5 106497212.507 5        34.000    19950628.140 5  82831165.230 5        32.000                                                  
R23  20439078.955 7 109335043.508 7        43.000                                                                                                  
R24  23881872.231 6 127706417.293 6        36.000    23881877.217 6  99327214.179 6        36.000                                                  
C02                                                  39906411.403 6 160686331.502 6        38.000  
C05                                                  38944192.982 6 156811501.046 6        40.000  
C08                                                  37629989.331 7 151520306.055 7        42.000  
C11                                                  21964025.413 8  88440013.569 8        48.000  
C12                                                  25727141.887 6 103592636.753 6        41.000  
C13                                                  36714888.468 7 147835235.279 7        43.000  
C14                                                  25774979.674 7 103785612.246 7        42.000  
> 2021 11 07 00 12  0.0000000  0 27                     
G02  25860329.972 5 135897546.732 5        33.000    25860334.510 2 105894192.485 2        15.000                                                                                                  
G05  21570128.998 7 113352242.795 7        44.000                                                    21570135.859 7  88326427.322 7        44.000                                                  
G16  23364209.299 5 122779326.228 5        35.000    23364215.428 3  95671983.002 3        19.000                                                                                                  
G18  20856417.009 7 109601622.889 7        44.000                                                    20856423.781 7  85403866.461 7        47.000                                                  
G20  23104816.450 6 121417145.179 6        37.000    23104823.723 3  94610767.389 3        20.000                                                                                                  
G23  24686819.932 5 129729924.326 5        35.000                                                    24686827.705 6 101088252.886 6        40.000                                                  
G25  24312798.462 5 127764655.541 5        35.000                                                    24312810.077 6  99556873.711 6        40.000                                                  
G26  21330336.180 7 112091442.239 7        43.000                                                    21330345.204 7  87343981.049 7        46.000                                                  
G29  20954021.454 7 110113852.218 7        45.000                                                    20954029.030 7  85803006.900 7        45.000                                                  
G31  24988726.134 5 131317108.284 5        35.000                                                    24988734.533 5 102325015.842 5        35.000                                                  
R05  24495693.86315 130943177.57515        30.0001   24495696.91814 101844693.57014        29.0001                                                 
R06  21596291.785 5 115241499.848 5        31.000                                                                                                  
R07  22008367.947 6 117811699.736 6        41.000    22008374.720 7  91631325.290 7        44.000                                                  
R12  22639501.106 7 120935288.816 7        42.000    22639503.286 6  94060777.807 6        40.000                                                  
R13  20440320.637 5 109149978.041 5        35.000    20440324.158 6  84894426.018 6        38.000                                                  
R14  21844250.085 7 116442847.385 7        43.000    21844254.659 6  90566058.578 6        40.000                                                  
R21  23570593.244 6 126131157.374 6        37.000    23570596.299 6  98102117.824 6        36.000                                                  
R22  19973125.329 5 106617319.704 5        35.000    19973126.312 5  82924581.929 5        32.000                                                  
R23  20412034.814 7 109190376.408 7        43.000                                                                                                  
R24  23839731.661 6 127481066.627 6        37.000    23839735.628 6  99151941.525 6        39.000                                                  
C02                                                                                                
C05                                                  38943627.624 6 156809223.106 6        40.000  
C08                                                  37639754.252 7 151559626.518 7        42.000  
C11                                                  21980486.268 7  88506295.612 7        47.000  
C12                                                  25762066.767 7 103733265.028 7        42.000  
C13                                                  36720922.265 7 147859534.091 7        43.000  
C14                                                  25735616.003 6 103627115.227 6        41.000  
> 2021 11 07 00 13  0.0000000  0 26                     
G02  25896576.12315 136087645.12515        31.0001                                                                                                                                                 
G05  21577266.314 7 113389748.876 7        43.000                                                    21577272.747 7  88355652.857 7        44.000                                                  
G16  23328986.756 6 122594224.135 6        38.000    23328991.652 3  95527747.612 3        21.000                                                                                                  
G18  20834109.696 7 109484400.416 7        45.000                                                    20834117.218 8  85312524.311 8        48.000                                                  
G20  23133661.502 6 121568715.687 6        40.000    23133666.506 3  94728874.239 3        22.000                                                                                                  
G23  24642247.262 6 129495695.186 6        36.000                                                    24642255.464 6 100905736.732 6        41.000                                                  
G25  24358020.867 5 128002296.873 5        35.000                                                    24358030.713 6  99742048.694 6        39.000                                                  
G26  21323418.813 7 112055089.843 7        43.000                                                    21323427.837 7  87315654.539 7        45.000                                                  
G29  20974599.081 7 110221992.637 7        45.000                                                    20974606.997 7  85887272.155 7        46.000                                                  
G31  25025918.254 6 131512555.167 6        36.000                                                    25025927.367 6 102477312.039 6        37.000                                                  
R06  21601987.10715 115271615.44315        33.0001                                                                                                 
