     3.02           OBSERVATION DATA    M                   RINEX VERSION / TYPE
HIVE                geosystems.aero     18-JAN-22 11:21     PGM / RUN BY / DATE 
KZIL                                                        MARKER NAME         
454                                                         MARKER NUMBER       
                                                            MARKER TYPE         
geosystems.aero     Industrial Geodetic Systems             OBSERVER / AGENCY   
                    IGS GR111 (NOV OEM628)                  REC # / TYPE / VERS 
                    HXCCSX601A      NONE                    ANT # / TYPE        
  3183977.2540  3398463.8320  4343629.1770                  APPROX POSITION XYZ 
        0.0000        0.0000        0.0000                  ANTENNA: DELTA H/E/N
G  6   C1C L1C S1C C2W L2W S2W                              SYS / # / OBS TYPES 
R  6   C1C L1C S1C C2C L2C S2C                              SYS / # / OBS TYPES 
    60.000                                                  INTERVAL            
  2021    11    07    00    00   00.0000000     GPS         TIME OF FIRST OBS   
  2021    11    07    23    59   00.0000000     GPS         TIME OF LAST OBS    
 C1C    0.000 C1P    0.000 C2C    0.000 C2P    0.000        GLONASS COD/PHS/BIS 
    18                                                      LEAP SECONDS        
    50                                                      # OF SATELLITES     
   G01   328   328   328   328   328   328                  PRN / # OF OBS      
   G02   102   102   102   101   101   101                  PRN / # OF OBS      
   G04   310   310   310   310   310   310                  PRN / # OF OBS      
   G05   121   121   121   121   121   121                  PRN / # OF OBS      
   G06   192   192   192   192   192   192                  PRN / # OF OBS      
   G07   140   140   140   140   140   140                  PRN / # OF OBS      
   G08   297   297   297   296   296   296                  PRN / # OF OBS      
   G09   216   216   216   216   216   216                  PRN / # OF OBS      
   G10   411   411   411   410   410   410                  PRN / # OF OBS      
   G12     9     9     9     9     9     9                  PRN / # OF OBS      
   G13   163   163   163   163   163   163                  PRN / # OF OBS      
   G15   228   228   228   228   228   228                  PRN / # OF OBS      
   G16   428   428   428   428   428   428                  PRN / # OF OBS      
   G17   149   149   149   148   148   148                  PRN / # OF OBS      
   G18   299   299   299   299   299   299                  PRN / # OF OBS      
   G19    96    96    96    96    96    96                  PRN / # OF OBS      
   G20    88    88    88    88    88    88                  PRN / # OF OBS      
   G21   364   364   364   364   364   364                  PRN / # OF OBS      
   G22   410   410   410   410   410   410                  PRN / # OF OBS      
   G23   353   353   353   353   353   353                  PRN / # OF OBS      
   G24   132   132   132   132   132   132                  PRN / # OF OBS      
   G25    69    69    69    69    69    69                  PRN / # OF OBS      
   G26   433   433   433   433   433   433                  PRN / # OF OBS      
   G27   338   338   338   338   338   338                  PRN / # OF OBS      
   G29   171   171   171   171   171   171                  PRN / # OF OBS      
   G30    61    61    61    61    61    61                  PRN / # OF OBS      
   G31   332   332   332   332   332   332                  PRN / # OF OBS      
   G32   361   361   361   361   361   361                  PRN / # OF OBS      
   R01   311   311   311   311   311   311                  PRN / # OF OBS      
   R02   356   356   356   355   355   355                  PRN / # OF OBS      
   R03   388   388   388   388   388   388                  PRN / # OF OBS      
   R04   353   353   353   352   352   352                  PRN / # OF OBS      
   R05   226   226   226   225   225   225                  PRN / # OF OBS      
   R06   141   141   141     0     0     0                  PRN / # OF OBS      
   R07   172   172   172   172   172   172                  PRN / # OF OBS      
   R08   269   269   269   269   269   269                  PRN / # OF OBS      
   R10    31    31    31     0     0     0                  PRN / # OF OBS      
   R12   244   244   244   244   244   244                  PRN / # OF OBS      
   R13   321   321   321   320   320   320                  PRN / # OF OBS      
   R14   419   419   419   419   419   419                  PRN / # OF OBS      
   R15   294   294   294   293   293   293                  PRN / # OF OBS      
   R16    78    78    78    78    78    78                  PRN / # OF OBS      
   R17   314   314   314   314   314   314                  PRN / # OF OBS      
   R18   281   281   281   280   280   280                  PRN / # OF OBS      
   R19   240   240   240   239   239   239                  PRN / # OF OBS      
   R20   193   193   193   193   193   193                  PRN / # OF OBS      
   R21   161   161   161   161   161   161                  PRN / # OF OBS      
   R22   187   187   187   180   180   180                  PRN / # OF OBS      
   R23   291   291   291     0     0     0                  PRN / # OF OBS      
   R24   357   357   357   357   357   357                  PRN / # OF OBS      
                                                            END OF HEADER       
> 2021 11 07 00 00  0.0000000  0 20                     
G02  25541343.967 6 134220674.972 6        41.000    25541330.994 6 104587539.764 6        39.000  
G05  21340454.747 8 112144860.134 8        49.000    21340441.881 8  87385607.217 8        49.000  
G12  25052490.313 6 131651729.086 6        40.000    25052478.966 6 102585765.325 6        40.000  
G15  25016847.473 6 131464440.096 6        36.000    25016837.270 5 102439810.967 5        34.000  
G18  21012400.553 8 110420912.909 8        49.000    21012388.777 8  86042272.031 8        48.000  
G20  23215605.429 6 121998833.269 6        40.000    23215592.545 6  95064028.757 6        37.000  
G23  23936315.195 7 125786177.222 7        43.000    23936304.134 6  98015205.159 6        41.000  
G25  22486184.031 7 118165697.635 7        44.000    22486175.365 7  92077168.223 7        44.000  
G26  22276917.437 7 117065996.134 7        46.000    22276908.199 7  91220254.325 7        46.000  
G29  20560321.508 8 108045230.994 8        49.000    20560309.429 8  84191084.847 8        49.000  
G31  24630176.898 7 129432418.821 7        42.000    24630165.480 7 100856426.333 7        42.000  
R06  21943348.398 6 117093912.942 6        39.000                                                  
R07  21582360.040 8 115532045.398 8        51.000    21582358.736 8  89858258.931 8        48.000  
R08  23755481.809 7 127209525.443 7        42.000    23755480.361 7  98940738.835 7        42.000  
R12  21301273.501 8 113787566.902 8        50.000    21301271.767 7  88501437.430 7        44.000  
R13  20757263.516 6 110842617.171 6        41.000    20757261.943 7  86210924.339 7        43.000  
R14  23658726.767 6 126114314.600 6        38.000    23658725.302 6  98088911.101 6        40.000  
R21  23006758.346 7 123113824.308 7        44.000    23006758.006 7  95755196.247 7        43.000  
R22  20100122.244 6 107295825.318 6        40.000    20100120.565 6  83452313.145 6        37.000  
R23  21360593.797 8 114264782.107 8        49.000                                                  
> 2021 11 07 00 01  0.0000000  0 20                     
G02  25573239.405 6 134388279.693 6        41.000    25573225.002 6 104718140.741 6        36.000  
G05  21352863.961 8 112210068.235 8        49.000    21352850.756 8  87436418.729 8        49.000  
G12  25097279.537 6 131887101.619 6        39.000    25097267.297 6 102769172.471 6        40.000  
G15  24981767.686 6 131280090.601 6        36.000    24981754.195 5 102296162.122 5        34.000  
G18  20992828.433 8 110318058.831 8        49.000    20992816.264 8  85962126.035 8        48.000  
G20  23247138.608 7 122164542.387 7        42.000    23247124.313 6  95193152.717 6        37.000  
G23  23893310.944 7 125560189.104 7        42.000    23893300.329 6  97839110.570 6        40.000  
G25  22525251.433 7 118370998.381 7        44.000    22525242.963 7  92237142.849 7        44.000  
G26  22255390.732 7 116952871.026 7        46.000    22255381.637 7  91132104.908 7        46.000  
G29  20567368.247 8 108082260.391 8        50.000    20567355.685 8  84219938.934 8        50.000  
G31  24658190.165 7 129579625.714 7        42.000    24658178.211 7 100971132.996 7        43.000  
R06  21954350.356 6 117152621.441 6        38.000                                                  
R07  21552988.977 8 115374819.013 8        51.000    21552987.226 8  89735971.773 8        48.000  
R08  23707563.039 7 126952920.780 7        42.000    23707562.021 6  98741157.539 6        40.000  
R12  21340894.039 8 113999212.737 8        50.000    21340892.698 7  88666050.815 7        45.000  
R13  20757878.549 6 110845902.408 6        41.000    20757877.209 7  86213479.504 7        43.000  
R14  23620425.053 6 125910175.525 6        39.000    23620429.967 6  97930136.137 6        40.000  
R21  23039366.222 7 123288315.314 7        45.000    23039365.310 6  95890911.381 6        41.000  
R22  20113749.876 6 107368571.376 6        40.000    20113748.536 6  83508893.392 6        37.000  
R23  21336019.798 8 114133329.807 8        48.000                                                  
> 2021 11 07 00 02  0.0000000  0 20                     
G02  25605101.499 6 134555713.733 6        41.000    25605085.649 5 104848608.758 5        34.000  
G05  21365729.300 8 112277678.783 8        49.000    21365716.685 8  87489102.278 8        49.000  
G12  25142081.895 6 132122531.213 6        40.000    25142068.226 6 102952624.025 6        40.000  
G15  24946696.870 5 131095790.432 5        35.000    24946683.432 5 102152551.737 5        33.000  
G18  20973518.488 8 110216583.865 8        49.000    20973506.301 8  85883054.660 8        48.000  
G20  23278925.848 7 122331578.386 7        44.000    23278910.928 6  95323310.646 6        40.000  
G23  23850385.029 7 125334612.062 7        43.000    23850373.611 6  97663336.290 6        38.000  
G25  22564509.409 7 118577299.543 7        45.000    22564500.742 7  92397896.985 7        45.000  
G26  22234228.592 7 116841667.855 7        46.000    22234220.211 7  91045453.089 7        45.000  
G29  20574678.000 8 108120671.558 8        50.000    20574665.009 8  84249869.743 8        50.000  
G31  24686363.628 6 129727690.105 6        40.000    24686355.283 6 101086507.807 6        40.000  
R06  21965935.129 6 117214441.133 6        38.000                                                  
R07  21524055.723 8 115219935.156 8        51.000    21524053.722 8  89615506.607 8        48.000  
R08  23659648.112 6 126696337.096 6        41.000    23659645.771 6  98541592.473 6        40.000  
R12  21380845.243 8 114212626.187 8        49.000    21380844.421 7  88832039.006 7        44.000  
R13  20759113.942 6 110852502.142 6        41.000    20759112.977 7  86218612.613 7        42.000  
R14  23582467.424 7 125707827.261 7        45.000    23582469.675 6  97772754.187 6        38.000  
R21  23072009.228 7 123462990.901 7        46.000    23072006.994 7  96026770.117 7        42.000  
R22  20127565.865 6 107442322.248 6        41.000    20127564.310 6  83566255.196 6        36.000  
R23  21311596.417 8 114002684.084 8        48.000                                                  
> 2021 11 07 00 03  0.0000000  0 20                     
G02  25636929.052 6 134722971.477 6        41.000    25636914.274 6 104978939.433 6        38.000  
G05  21379049.424 7 112347679.243 7        47.000    21379037.291 7  87543648.123 7        47.000  
G12  25186888.774 6 132357998.438 6        41.000    25186877.267 6 103136105.084 6        41.000  
G15  24911639.098 6 130911561.476 6        38.000    24911626.446 6 102008996.695 6        37.000  
G18  20954470.234 8 110116488.019 8        49.000    20954458.816 8  85805057.915 8        49.000  
G20  23310960.521 7 122499920.074 7        44.000    23310946.548 6  95454485.978 6        40.000  
G23  23807540.670 7 125109464.949 7        42.000    23807530.002 6  97487897.029 6        41.000  
G25  22603953.544 7 118784579.125 7        45.000    22603944.288 7  92559413.504 7        45.000  
G26  22213435.160 7 116732400.229 7        46.000    22213426.440 7  90960309.526 7        46.000  
G29  20582250.409 8 108160465.850 8        50.000    20582237.543 8  84280878.303 8        50.000  
G31  24714699.896 7 129876585.729 7        44.000    24714688.871 7 101202530.383 7        44.000  
R06  21978101.468 6 117279361.382 6        39.000                                                  
R07  21495564.728 8 115067422.906 8        50.000    21495563.548 8  89496885.984 8        49.000  
R08  23611742.280 6 126439805.565 6        39.000    23611741.029 7  98342067.953 7        42.000  
R12  21421120.484 8 114427770.796 8        49.000    21421119.001 7  88999373.701 7        44.000  
R13  20760969.158 6 110862411.925 6        40.000    20760968.389 7  86226320.206 7        42.000  
R14  23544852.809 7 125507300.019 7        44.000    23544850.468 6  97616788.588 6        39.000  
R21  23104685.327 7 123637846.413 7        46.000    23104683.308 7  96162768.740 7        42.000  
R22  20141568.567 6 107517070.397 6        40.000    20141566.441 5  83624392.645 5        35.000  
R23  21287323.887 8 113872844.039 8        48.000                                                  
> 2021 11 07 00 04  0.0000000  0 19                     
G02  25668724.834 6 134890060.578 6        39.000    25668711.432 6 105109138.744 6        38.000  
G05  21392824.761 8 112420070.246 8        49.000    21392812.556 8  87600056.735 8        49.000  
G12  25231703.569 7 132593498.341 7        42.000    25231691.311 7 103319611.502 7        42.000  
G18  20935687.157 8 110017785.361 8        48.000    20935676.757 8  85728146.742 8        48.000  
G20  23343241.126 7 122669560.203 7        45.000    23343228.600 6  95586673.133 6        41.000  
G23  23764784.690 7 124884780.698 7        44.000    23764772.664 6  97312818.426 6        40.000  
G25  22643582.158 7 118992829.218 7        45.000    22643573.313 7  92721686.250 7        45.000  
G26  22193013.958 7 116625095.796 7        44.000    22193006.685 7  90876695.688 7        44.000  
G29  20590088.996 8 108201658.496 8        50.000    20590076.291 8  84312976.469 8        50.000  
G31  24743188.068 6 130026301.971 6        40.000    24743179.509 6 101319192.298 6        40.000  
R06  21990848.961 6 117347384.164 6        38.000                                                  
R07  21467524.925 8 114917326.151 8        50.000    21467524.085 8  89380144.103 8        48.000  
R08  23563854.567 6 126183371.902 6        39.000    23563853.799 7  98142619.576 7        42.000  
R12  21461715.938 8 114644623.852 8        49.000    21461714.347 7  89168037.138 7        44.000  
R13  20763446.483 6 110875640.772 6        40.000    20763445.787 7  86236609.283 7        43.000  
R14  23507582.798 7 125308636.975 7        44.000    23507580.975 6  97462272.902 6        40.000  
R21  23137397.129 7 123812891.844 7        46.000    23137395.807 7  96298915.114 7        42.000  
R22  20155759.842 6 107592822.612 6        41.000    20155757.644 5  83683311.046 5        35.000  
R23  21263204.816 8 113743823.210 8        48.000                                                  
> 2021 11 07 00 05  0.0000000  0 20                     
G02  25700483.735 6 135056956.296 6        37.000    25700471.405 6 105239187.342 6        36.000  
G05  21407049.414 8 112494818.406 8        49.000    21407036.585 8  87658302.066 8        49.000  
G12  25276516.345 7 132828992.149 7        42.000    25276503.908 7 103503113.139 7        42.000  
G16  24996708.620 6 131358593.092 6        38.000    24996693.181 5 102357343.597 5        35.000  
G18  20917165.986 8 109920456.165 8        49.000    20917154.675 7  85652305.854 7        47.000  
G20  23375762.480 7 122840457.919 7        43.000    23375748.863 6  95719840.175 6        41.000  
G23  23722116.626 7 124660558.666 7        43.000    23722105.261 6  97138100.015 6        41.000  
G25  22683387.748 7 119202008.149 7        45.000    22683378.742 7  92884682.822 7        45.000  
G26  22172968.309 7 116519748.394 7        46.000    22172960.733 7  90794606.780 7        46.000  
G29  20598190.007 8 108244231.700 8        50.000    20598177.730 8  84346150.389 8        50.000  
G31  24771827.430 6 130176793.843 6        41.000    24771816.441 6 101436458.713 6        40.000  
R06  22004170.871 6 117418477.369 6        39.000                                                  
R07  21439938.352 8 114769653.488 8        50.000    21439937.494 8  89265287.664 8        49.000  
R08  23515987.976 7 125927047.374 7        43.000    23515986.510 7  97943256.068 7        44.000  
R12  21502621.080 8 114863128.887 8        49.000    21502619.061 7  89337985.506 7        45.000  
R13  20766541.202 6 110892163.538 6        41.000    20766540.701 7  86249460.283 7        44.000  
R14  23470666.183 7 125111847.336 7        45.000    23470665.164 6  97309214.242 6        41.000  
R21  23170139.505 7 123988103.065 7        46.000    23170138.754 7  96435190.464 7        42.000  
R22  20170134.077 6 107669551.953 6        41.000    20170131.540 6  83742989.457 6        36.000  
R23  21239234.701 7 113615601.145 7        47.000                                                  
> 2021 11 07 00 06  0.0000000  0 20                     
G02  25732207.237 6 135223663.165 6        38.000    25732194.353 6 105369088.789 6        37.000  
G05  21421721.651 8 112571920.483 8        49.000    21421708.625 8  87718381.614 8        49.000  
G12  25321327.316 6 133064470.696 6        41.000    25321313.878 6 103686602.897 6        40.000  
G16  24956941.753 6 131149629.461 6        38.000    24956929.173 5 102194514.748 5        35.000  
G18  20898908.938 8 109824510.263 8        48.000    20898896.304 8  85577542.843 8        48.000  
G20  23408520.098 7 123012602.455 7        44.000    23408506.553 6  95853978.766 6        41.000  
G23  23679542.964 7 124436827.747 7        44.000    23679531.028 6  96963764.270 6        41.000  
G25  22723367.274 7 119412103.968 7        45.000    22723358.554 7  93048393.834 7        45.000  
G26  22153300.340 7 116416381.025 7        47.000    22153291.281 7  90714060.758 7        47.000  
G29  20606556.104 8 108288196.448 8        49.000    20606544.079 8  84380408.632 8        49.000  
G31  24800611.532 7 130328046.375 7        43.000    24800598.362 7 101554317.767 7        43.000  
R06  22018069.594 6 117492638.142 6        39.000                                                  
R07  21412812.103 8 114624444.452 8        49.000    21412811.460 8  89152347.366 8        49.000  
R08  23468149.796 6 125670874.403 6        40.000    23468147.312 6  97744010.469 6        40.000  
R12  21543830.156 8 115083259.343 8        49.000    21543828.923 7  89509198.048 7        45.000  
R13  20770253.366 6 110911984.061 6        41.000    20770252.651 7  86264876.230 7        43.000  
R14  23434106.859 7 124916970.670 7        42.000    23434107.556 7  97157643.424 7        42.000  
R21  23202913.383 7 124163486.356 7        45.000    23202913.401 6  96571599.670 6        41.000  
R22  20184691.791 6 107747261.389 6        41.000    20184689.307 6  83803430.131 6        36.000  
R23  21215415.597 7 113488187.540 7        47.000                                                  
> 2021 11 07 00 07  0.0000000  0 21                     
G02  25763897.377 6 135390190.724 6        38.000    25763882.939 6 105498850.462 6        38.000  
G05  21436841.632 8 112651375.883 8        48.000    21436828.284 8  87780294.901 8        48.000  
G12  25366132.497 6 133299929.942 6        38.000    25366120.900 6 103870077.653 6        38.000  
G15  24771648.061 5 130175916.068 5        34.000    24771632.622 5 101435779.010 5        34.000  
G16  24917324.181 6 130941437.130 6        38.000    24917312.137 6 102032286.979 6        37.000  
G18  20880916.797 8 109729961.865 8        48.000    20880905.021 8  85503868.787 8        48.000  
G20  23441513.265 7 123185986.797 7        43.000    23441501.025 7  95989083.470 7        42.000  
G23  23637067.707 7 124213621.496 7        42.000    23637056.950 7  96789837.365 7        42.000  
G25  22763520.631 7 119623109.118 7        45.000    22763511.750 7  93212813.393 7        44.000  
G26  22134011.892 7 116315021.250 7        46.000    22134002.528 7  90635079.111 7        46.000  
G29  20615190.238 8 108333568.520 8        48.000    20615178.105 8  84415763.466 8        48.000  
G31  24829534.940 6 130480048.764 6        40.000    24829522.753 6 101672761.177 6        40.000  
R06  22032542.091 6 117569867.413 6        39.000                                                  
R07  21386153.683 8 114481741.399 8        49.000    21386152.843 8  89041356.174 8        48.000  
R08  23420348.051 7 125414899.363 7        42.000    23420346.746 6  97544918.789 6        41.000  
R12  21585338.717 8 115304993.104 8        49.000    21585338.074 7  89681657.594 7        46.000  
R13  20774584.424 6 110935109.773 6        41.000    20774583.388 7  86282862.885 7        43.000  
R14  23397915.243 7 124724050.462 7        45.000    23397914.922 6  97007594.353 6        41.000  
R21  23235722.125 7 124339052.654 7        46.000    23235721.875 6  96708151.211 6        40.000  
R22  20199434.110 6 107825958.771 6        41.000    20199432.395 6  83864639.197 6        37.000  
R23  21191750.507 7 113361596.547 7        47.000                                                  
> 2021 11 07 00 08  0.0000000  0 20                     
G02  25795550.189 6 135556527.040 6        38.000    25795535.572 6 105628463.179 6        36.000  
G05  21452405.426 8 112733164.873 8        48.000    21452392.185 8  87844026.589 8        48.000  
G12  25410930.191 6 133535344.869 6        38.000    25410918.969 6 104053517.856 6        38.000  
G16  24877855.976 6 130734030.498 6        38.000    24877843.843 6 101870671.432 6        36.000  
G18  20863189.565 8 109636804.593 8        49.000    20863177.539 8  85431278.718 8        49.000  
G20  23474738.498 7 123360584.092 7        44.000    23474726.007 6  96125133.283 6        40.000  
G23  23594694.857 7 123990953.008 7        43.000    23594684.064 7  96616329.436 7        43.000  
G25  22803840.902 7 119834995.512 7        45.000    22803832.289 7  93377919.676 7        45.000  
G26  22115105.500 7 116215675.827 7        45.000    22115097.442 7  90557667.057 7        45.000  
G29  20624091.102 8 108380343.566 8        49.000    20624079.058 8  84452211.531 8        49.000  
G31  24858596.690 6 130632769.925 6        41.000    24858583.485 6 101791764.712 6        41.000  
R06  22047586.343 6 117650145.096 6        39.000                                                  
R07  21359967.720 8 114341566.982 8        49.000    21359966.987 8  88932331.679 8        48.000  
R08  23372588.905 7 125159148.408 7        42.000    23372586.672 6  97346001.403 6        41.000  
R12  21627139.454 8 115528286.695 8        49.000    21627139.669 7  89855330.386 7        46.000  
R13  20779531.481 6 110961526.316 6        41.000    20779529.998 7  86303409.053 7        43.000  
R14  23362095.393 7 124533109.536 7        45.000    23362094.464 6  96859084.741 6        41.000  
R21  23268564.120 7 124514791.553 7        44.000    23268562.172 6  96844836.938 6        41.000  
R22  20214359.426 6 107905631.290 6        41.000    20214357.586 6  83926606.712 6        37.000  
R23  21168238.196 8 113235821.701 8        48.000                                                  
> 2021 11 07 00 09  0.0000000  0 19                     
G05  21468410.085 8 112817272.140 8        48.000    21468397.433 8  87909564.730 8        48.000  
G15  24701854.445 4 129809102.832 4        29.000    24701848.816 4 101149950.059 4        29.000  
G16  24838541.428 6 130527428.799 6        39.000    24838529.348 6 101709683.036 6        36.000  
G18  20845727.509 8 109545037.577 8        49.000    20845715.304 8  85359771.962 8        49.000  
G20  23508190.756 6 123536372.788 6        41.000    23508176.747 6  96262111.458 6        39.000  
G23  23552428.739 7 123768840.813 7        43.000    23552417.160 6  96443255.042 6        41.000  
G25  22844325.586 7 120047740.768 7        46.000    22844316.526 7  93543695.150 7        47.000  
G26  22096586.831 7 116118356.902 7        46.000    22096578.272 7  90481834.105 7        46.000  
G29  20633260.126 8 108428522.036 8        48.000    20633246.796 8  84489753.148 8        48.000  
G31  24887790.867 7 130786184.271 7        43.000    24887778.841 7 101911308.296 7        43.000  
R06  22063198.508 6 117733455.770 6        38.000                                                  
R07  21334259.932 8 114203947.820 8        50.000    21334258.752 8  88825294.595 8        49.000  
R08  23324876.523 7 124903653.481 7        43.000    23324874.576 7  97147283.138 7        42.000  
R12  21669226.221 8 115753102.998 8        49.000    21669225.631 7  90030187.497 7        46.000  
R13  20785093.036 6 110991225.399 6        41.000    20785091.856 7  86326508.317 7        44.000  
R14  23326652.686 7 124344176.253 7        45.000    23326651.900 7  96712136.609 7        43.000  
R21  23301436.511 7 124690699.327 7        43.000    23301434.420 6  96981653.900 6        40.000  
R22  20229466.291 6 107986272.092 6        41.000    20229464.433 6  83989327.326 6        37.000  
R23  21144878.934 8 113110862.539 8        49.000                                                  
> 2021 11 07 00 10  0.0000000  0 19                     
G05  21484849.550 8 112903663.537 8        49.000    21484837.363 8  87976882.731 8        49.000  
G15  24667028.720 5 129626113.263 5        35.000    24667006.795 5 101007360.433 5        32.000  
G16  24799381.517 6 130321632.284 6        40.000    24799367.633 5 101549322.134 5        35.000  
G18  20828525.447 8 109454641.248 8        49.000    20828513.689 8  85289333.278 8        49.000  
G20  23541860.123 7 123713312.733 7        42.000    23541847.740 6  96399986.746 6        39.000  
G23  23510268.798 7 123547285.001 7        46.000    23510256.844 7  96270614.191 7        42.000  
G25  22884965.265 7 120261303.721 7        45.000    22884956.528 7  93710107.831 7        45.000  
G26  22078452.561 7 116023057.700 7        46.000    22078442.786 7  90407575.018 7        46.000  
G29  20642691.450 8 108478085.993 8        48.000    20642678.424 8  84528374.441 8        48.000  
G31  24917110.557 7 130940247.737 7        43.000    24917096.619 7 102031357.752 7        44.000  
R06  22079373.673 6 117819764.983 6        40.000                                                  
R07  21309030.765 8 114068891.738 8        50.000    21309028.818 8  88720251.040 8        48.000  
R08  23277214.997 7 124648427.404 7        44.000    23277213.728 7  96948774.007 7        43.000  
R12  21711586.813 8 115979385.702 8        49.000    21711586.116 7  90206185.116 7        45.000  
R13  20791263.870 6 111024178.476 6        40.000    20791263.227 7  86352138.476 7        43.000  
R14  23291587.927 7 124157259.436 7        45.000    23291587.516 7  96566756.886 7        43.000  
R21  23334336.134 7 124866753.048 7        46.000    23334334.865 6  97118584.544 6        41.000  
R22  20244749.434 6 108067855.146 6        40.000    20244747.630 6  84052780.811 6        37.000  
R23  21121668.395 8 112986699.040 8        48.000                                                  
> 2021 11 07 00 11  0.0000000  0 18                     
G05  21501726.074 8 112992347.527 8        49.000    21501713.494 8  88045987.144 8        49.000  
G16  24760381.195 6 130116685.060 6        39.000    24760367.704 6 101389623.030 6        36.000  
G18  20811588.455 8 109365638.400 8        49.000    20811576.697 8  85219980.441 8        48.000  
G20  23575751.513 7 123891406.373 7        43.000    23575736.985 6  96538760.982 6        40.000  
G23  23468221.951 7 123326328.136 7        45.000    23468209.764 7  96098440.031 7        45.000  
G25  22925760.835 7 120475685.793 7        46.000    22925751.775 7  93877158.771 7        46.000  
G26  22060708.942 7 115929813.829 7        46.000    22060698.793 7  90334917.459 7        46.000  
G29  20652391.506 8 108529060.579 8        49.000    20652378.587 8  84568094.915 8        49.000  
G31  24946551.487 7 131094958.513 7        43.000    24946536.370 7 102151911.579 7        43.000  
R06  22096111.712 6 117909080.730 6        40.000                                                  
R07  21284289.673 8 113936449.379 8        50.000    21284287.887 8  88617240.377 8        48.000  
R08  23229614.296 7 124393527.075 7        45.000    23229612.188 7  96750518.207 7        42.000  
R12  21754218.639 8 116207121.436 8        48.000    21754218.764 7  90383312.870 7        45.000  
R13  20798047.077 6 111060400.239 6        41.000    20798046.183 7  86380310.929 7        42.000  
R14  23256910.444 7 123972411.664 7        42.000    23256909.372 7  96422986.456 7        42.000  
R21  23367266.903 7 125042972.892 7        47.000    23367265.170 6  97255644.337 6        40.000  
R22  20260211.947 6 108150397.487 6        40.000    20260210.821 6  84116980.406 6        37.000  
R23  21098610.637 8 112863355.392 8        49.000                                                  
> 2021 11 07 00 12  0.0000000  0 19                     
G05  21519038.280 8 113083322.626 8        49.000    21519025.683 8  88116876.841 8        49.000  
G15  24597541.093 5 129260938.641 5        32.000    24597519.293 4 100722809.376 4        27.000  
G16  24721547.574 6 129912622.478 6        37.000    24721535.994 6 101230613.187 6        36.000  
G18  20794919.247 8 109278043.099 8        48.000    20794907.525 8  85151724.413 8        48.000  
G20  23609858.849 6 124070647.102 6        41.000    23609845.930 6  96678429.064 6        41.000  
G23  23426295.844 7 123106004.033 7        46.000    23426283.533 7  95926758.955 7        44.000  
G25  22966710.864 7 120690879.715 7        44.000    22966701.875 7  94044842.308 7        44.000  
G26  22043361.552 7 115838651.832 7        47.000    22043351.188 7  90263882.148 7        47.000  
G29  20662363.368 8 108581461.297 8        50.000    20662350.145 8  84608926.641 8        50.000  
G31  24976112.498 6 131250306.305 6        41.000    24976098.703 7 102272961.790 7        42.000  
R06  22113411.213 6 118001401.226 6        36.000                                                  
R07  21260044.125 8 113806662.216 8        49.000    21260042.178 8  88516294.843 8        48.000  
R08  23182082.749 7 124139000.251 7        43.000    23182080.515 7  96552553.002 7        42.000  
R12  21797119.250 8 116436287.982 8        48.000    21797119.125 7  90561553.538 7        44.000  
R13  20805442.976 6 111099894.048 6        41.000    20805441.600 7  86411028.321 7        43.000  
R14  23222629.009 7 123789675.982 7        42.000    23222628.902 7  96280858.727 7        43.000  
R21  23400231.158 7 125219370.675 7        47.000    23400230.229 6  97392842.570 6        41.000  
R22  20275856.169 6 108233908.609 6        41.000    20275855.294 6  84181933.502 6        37.000  
R23  21075709.572 8 112740846.003 8        49.000                                                  
> 2021 11 07 00 13  0.0000000  0 18                     
G05  21536780.326 8 113176559.502 8        48.000    21536768.104 8  88189528.967 8        48.000  
G16  24682886.370 6 129709450.560 6        38.000    24682874.219 6 101072297.438 6        36.000  
G18  20778514.823 7 109191840.827 7        47.000    20778503.458 7  85084553.852 7        47.000  
G20  23644178.041 6 124251000.658 6        41.000    23644166.623 6  96818964.360 6        40.000  
G23  23384491.086 7 122886318.142 7        45.000    23384479.311 7  95755575.178 7        44.000  
G25  23007808.348 7 120906849.690 7        45.000    23007799.217 7  94213130.566 7        45.000  
G26  22026409.871 7 115749569.672 7        47.000    22026399.954 7  90194467.455 7        47.000  
G29  20672603.784 8 108635275.275 8        50.000    20672590.489 8  84650859.630 8        50.000  
G31  25005787.960 7 131406252.768 7        42.000    25005775.130 7 102394478.531 7        42.000  
R06  22131268.139 6 118096695.660 6        38.000                                                  
R07  21236296.694 8 113679542.814 8        49.000    21236294.818 7  88417424.202 7        47.000  
R08  23134624.303 6 123884866.223 6        41.000    23134623.392 7  96354893.326 7        43.000  
R12  21840278.444 8 116666834.744 8        49.000    21840277.604 7  90740867.651 7        44.000  
R13  20813446.404 6 111142635.275 6        40.000    20813445.689 7  86444271.467 7        43.000  
R14  23188747.126 7 123609066.195 7        43.000    23188746.965 7  96140384.474 7        42.000  
R21  23433225.416 7 125395928.936 7        46.000    23433224.897 6  97530165.695 6        41.000  
R22  20291678.546 6 108318367.837 6        41.000    20291677.116 6  84247624.010 6        37.000  
R23  21052960.947 8 112619157.141 8        49.000                                                  
> 2021 11 07 00 14  0.0000000  0 18                     
G05  21554947.690 8 113272029.331 8        49.000    21554934.950 8  88263921.086 8        49.000  
G16  24644395.208 6 129507177.797 6        40.000    24644383.396 5 100914682.315 5        34.000  
G18  20762373.234 7 109107018.949 7        46.000    20762362.977 7  85018458.885 7        47.000  
G20  23678704.156 7 124432433.822 7        43.000    23678691.362 6  96960340.819 6        38.000  
G23  23342808.624 7 122667277.815 7        45.000    23342797.081 7  95584894.413 7        44.000  
G25  23049047.247 7 121123561.881 7        45.000    23049038.509 7  94381997.181 7        45.000  
G26  22009853.346 7 115662566.882 7        46.000    22009844.358 7  90126673.064 7        46.000  
G29  20683110.716 8 108690491.688 8        50.000    20683098.225 8  84693885.417 8        50.000  
G31  25035569.939 7 131562760.466 7        42.000    25035557.681 7 102516432.592 7        43.000  
R06  22149679.254 6 118194934.565 6        39.000                                                  
R07  21213050.275 8 113555104.091 8        49.000    21213048.917 7  88320638.550 7        47.000  
R08  23087243.803 7 123631146.033 7        45.000    23087242.731 7  96157555.365 7        45.000  
R12  21883686.375 8 116898712.173 8        48.000    21883685.392 7  90921216.737 7        44.000  
R13  20822054.252 6 111188599.995 6        41.000    20822053.823 7  86480021.785 7        42.000  
R14  23155267.331 7 123430598.467 7        44.000    23155266.491 6  96001576.275 6        41.000  
R21  23466246.763 7 125572632.722 7        46.000    23466246.316 7  97667601.960 7        42.000  
R22  20307674.824 6 108403757.454 6        40.000    20307673.430 6  84314038.180 6        36.000  
R23  21030362.762 8 112498276.827 8        49.000                                                  
> 2021 11 07 00 15  0.0000000  0 18                     
G05  21573541.338 7 113369740.398 7        47.000    21573528.561 7  88340059.582 7        47.000  
G16  24606081.056 6 129305849.080 6        40.000    24606070.085 5 100757802.747 5        34.000  
G18  20746499.877 8 109023600.242 8        48.000    20746489.102 8  84953457.279 8        48.000  
G20  23713436.391 6 124614949.421 6        41.000    23713421.863 6  97102560.693 6        40.000  
G23  23301257.392 7 122448925.916 7        45.000    23301245.312 7  95414750.120 7        43.000  
G25  23090428.009 7 121341018.022 7        46.000    23090418.735 7  94551443.474 7        46.000  
G26  21993699.427 7 115577678.366 7        46.000    21993690.457 7  90060526.153 7        46.000  
G29  20693889.828 8 108747135.727 8        50.000    20693877.302 8  84738023.625 8        50.000  
G31  25065458.578 6 131719828.681 6        41.000    25065447.445 6 102638823.444 6        41.000  
R06  22168641.469 6 118296123.832 6        38.000                                                  
R07  21190314.177 8 113433395.730 8        50.000    21190312.568 7  88225976.556 7        47.000  
R08  23039951.968 7 123377896.441 7        45.000    23039950.842 7  95960583.516 7        46.000  
R12  21927341.184 8 117131907.536 8        48.000    21927340.345 7  91102590.887 7        45.000  
R13  20831267.931 6 111237799.601 6        41.000    20831267.252 7  86518288.117 7        42.000  
R14  23122199.561 7 123254324.031 7        44.000    23122197.184 6  95864474.029 6        41.000  
R21  23499299.738 7 125749502.925 7        45.000    23499298.791 6  97805167.661 6        41.000  
R22  20323849.363 6 108490095.706 6        41.000    20323847.451 6  84381190.172 6        36.000  
R23  21007921.164 8 112378229.379 8        49.000                                                  
> 2021 11 07 00 16  0.0000000  0 19                     
G05  21592552.799 8 113469648.850 8        48.000    21592540.702 8  88417910.330 8        48.000  
G15  24459345.697 5 128534712.715 5        34.000    24459330.544 5 100156919.486 5        35.000  
G16  24567949.366 6 129105457.158 6        41.000    24567936.518 5 100601653.120 5        34.000  
G18  20730888.730 8 108941556.398 8        49.000    20730876.526 8  84889527.057 8        49.000  
G20  23748366.203 6 124798499.243 6        41.000    23748351.658 6  97245586.503 6        40.000  
G23  23259836.121 7 122231254.475 7        45.000    23259824.202 7  95245136.050 7        44.000  
G25  23131941.001 7 121559168.949 7        45.000    23131931.513 7  94721431.151 7        45.000  
G26  21977945.614 8 115494887.831 8        48.000    21977936.269 8  89996014.061 8        48.000  
G29  20704935.368 8 108805180.490 8        50.000    20704922.914 8  84783253.310 8        50.000  
G31  25095441.512 6 131877405.427 6        39.000    25095432.792 6 102761610.448 6        38.000  
R06  22188148.831 6 118400217.416 6        39.000                                                  
R07  21168087.453 8 113314414.795 8        50.000    21168085.880 7  88133435.887 7        47.000  
R08  22992748.746 7 123125124.162 7        44.000    22992746.137 7  95763982.884 7        43.000  
R12  21971230.703 8 117366355.818 8        48.000    21971229.202 7  91284939.500 7        44.000  
R13  20841079.222 6 111290193.452 6        38.000    20841079.168 7  86559038.867 7        42.000  
R14  23089541.223 7 123080243.134 7        43.000    23089540.347 6  95729077.773 6        41.000  
R21  23532378.158 7 125926509.621 7        42.000    23532375.853 6  97942839.461 6        40.000  
R22  20340194.766 6 108577349.024 6        41.000    20340192.889 6  84449053.882 6        36.000  
R23  20985630.433 8 112258987.445 8        49.000                                                  
> 2021 11 07 00 17  0.0000000  0 18                     
G05  21611987.970 8 113571778.022 8        49.000    21611975.390 8  88497491.488 8        49.000  
G16  24530006.657 6 128906063.413 6        41.000    24529993.113 5 100446281.361 5        35.000  
G18  20715545.583 8 108860926.808 8        49.000    20715533.057 8  84826698.830 8        49.000  
G20  23783494.719 6 124983103.298 6        41.000    23783480.781 6  97389433.810 6        39.000  
G23  23218554.943 7 122014323.101 7        44.000    23218543.579 7  95076098.639 7        44.000  
G25  23173588.458 7 121778033.018 7        43.000    23173580.364 7  94891974.592 7        44.000  
G26  21962599.626 7 115414246.321 7        47.000    21962590.566 7  89933176.519 7        47.000  
G29  20716255.448 8 108864667.062 8        49.000    20716242.582 8  84829606.456 8        49.000  
G31  25125528.247 7 132035505.746 7        43.000    25125518.151 7 102884805.582 7        43.000  
R06  22208205.111 6 118507237.401 6        40.000                                                  
R07  21146382.433 8 113198226.678 8        50.000    21146381.254 7  88043067.389 7        47.000  
R08  22945648.325 7 122872903.773 7        44.000    22945646.752 7  95567811.508 7        46.000  
R12  22015355.379 8 117602061.034 8        48.000    22015354.378 7  91468265.733 7        45.000  
R13  20851493.467 6 111345809.264 6        39.000    20851494.325 7  86602295.582 7        43.000  
R14  23057307.775 7 122908423.953 7        45.000    23057308.222 7  95595440.591 7        42.000  
R21  23565488.546 7 126103690.561 7        42.000    23565486.491 6  98080646.745 6        40.000  
R22  20356718.216 6 108665553.120 6        40.000    20356716.929 6  84517657.061 6        37.000  
R23  20963498.219 8 112140592.634 8        50.000                                                  
> 2021 11 07 00 18  0.0000000  0 18                     
G05  21631835.630 8 113676075.808 8        49.000    21631822.264 8  88578762.490 8        49.000  
G16  24492251.002 7 128707653.875 7        42.000    24492237.136 5 100291676.467 5        35.000  
G18  20700464.235 8 108781675.984 8        49.000    20700452.316 8  84764944.966 8        49.000  
G20  23818812.664 6 125168706.219 6        41.000    23818799.923 6  97534059.469 6        41.000  
G23  23177411.554 7 121798116.674 7        44.000    23177400.940 7  94907626.112 7        44.000  
G25  23215362.410 7 121997554.084 7        44.000    23215353.869 7  95063029.945 7        44.000  
G26  21947657.674 7 115335729.928 7        47.000    21947649.097 7  89871994.925 7        47.000  
G29  20727843.724 8 108925562.375 8        49.000    20727830.787 8  84877057.319 8        49.000  
G31  25155703.058 7 132194071.328 7        42.000    25155691.747 6 103008363.114 6        41.000  
R06  22228798.517 6 118617129.312 6        39.000                                                  
R07  21125197.134 8 113084820.346 8        51.000    21125195.794 7  87954862.482 7        47.000  
R08  22898650.328 7 122621233.727 7        42.000    22898649.042 7  95372068.220 7        45.000  
R12  22059701.398 8 117838951.428 8        48.000    22059700.540 7  91652513.824 7        45.000  
R13  20862503.001 6 111404597.012 6        40.000    20862503.216 7  86648019.388 7        42.000  
R14  23025498.877 7 122738858.579 7        46.000    23025498.073 6  95463556.432 6        39.000  
R21  23598623.362 7 126281007.967 7        42.000    23598622.289 6  98218560.172 6        40.000  
R22  20373412.743 6 108754668.156 6        41.000    20373411.082 6  84586968.760 6        36.000  
R23  20941518.087 8 112023010.274 8        50.000                                                  
> 2021 11 07 00 19  0.0000000  0 21                     
G05  21652095.832 8 113782544.029 8        48.000    21652082.430 8  88661724.751 8        48.000  
G13  25046255.847 6 131618963.402 6        40.000    25046243.839 6 102560229.196 6        38.000  
G15  24356530.769 6 127994406.904 6        37.000    24356519.673 6  99735900.617 6        37.000  
G16  24454688.601 6 128510268.111 6        40.000    24454676.324 6 100137869.401 6        40.000  
G18  20685648.957 8 108703821.590 8        49.000    20685637.217 8  84704279.230 8        49.000  
G20  23854321.843 6 125355305.886 6        41.000    23854308.870 6  97679461.794 6        40.000  
G23  23136414.279 7 121582673.297 7        44.000    23136403.933 7  94739748.175 7        44.000  
G25  23257260.301 7 122217729.047 7        44.000    23257251.420 7  95234594.820 7        45.000  
G26  21933126.352 7 115259367.701 7        47.000    21933117.936 7  89812491.911 7        47.000  
G29  20739703.770 8 108987886.068 8        49.000    20739690.618 8  84925621.216 8        49.000  
G31  25185966.232 7 132353095.620 7        42.000    25185950.525 7 103132278.124 7        42.000  
R06  22249931.031 6 118729892.219 6        39.000                                                  
R07  21104539.614 8 112974238.054 8        51.000    21104537.792 7  87868854.058 7        47.000  
R08  22851765.193 7 122370167.540 7        45.000    22851763.870 7  95176794.533 7        46.000  
R12  22104265.937 8 118077009.285 8        49.000    22104265.544 7  91837669.898 7        44.000  
R13  20874107.306 6 111466561.495 6        39.000    20874107.627 7  86696213.960 7        43.000  
R14  22994120.176 7 122571592.974 7        46.000    22994118.925 6  95333460.978 6        40.000  
R21  23631787.000 7 126458478.761 7        43.000    23631787.285 6  98356593.026 6        40.000  
R22  20390280.118 6 108844707.488 6        40.000    20390277.885 6  84656999.329 6        36.000  
R23  20919693.042 8 111906260.406 8        48.000                                                  
R24  24113629.260 7 128946405.654 7        43.000    24113628.653 6 100291651.176 6        40.000  
> 2021 11 07 00 20  0.0000000  0 21                     
G05  21672764.341 8 113891158.934 8        48.000    21672750.922 8  88746359.747 8        49.000  
G13  25018466.460 7 131472933.945 7        42.000    25018455.399 6 102446440.036 6        36.000  
G15  24322449.932 6 127815292.228 6        38.000    24322435.744 6  99596330.819 6        38.000  
G16  24417324.563 7 128313921.077 7        42.000    24417313.484 6  99984871.758 6        36.000  
G18  20671097.693 8 108627356.293 8        49.000    20671086.328 8  84644695.898 8        49.000  
G20  23890013.483 6 125542875.885 6        39.000    23890001.386 6  97825620.273 6        38.000  
G23  23095564.442 7 121368006.206 7        44.000    23095553.845 7  94572475.146 7        44.000  
G25  23299277.969 7 122438530.099 7        45.000    23299268.462 7  95406647.546 7        45.000  
G26  21919006.322 8 115185163.458 8        48.000    21918997.476 8  89754670.453 8        48.000  
G29  20751833.262 8 109051632.529 8        48.000    20751821.326 8  84975293.758 8        49.000  
G31  25216309.138 7 132512547.884 7        42.000    25216293.324 7 103256526.643 7        42.000  
R06  22271596.024 6 118845499.654 6        38.000                                                  
R07  21084412.697 8 112866496.987 8        51.000    21084411.143 8  87785055.490 8        48.000  
R08  22804998.457 7 122119732.527 7        44.000    22804997.403 7  94982011.776 7        46.000  
R12  22149041.473 8 118316191.467 8        48.000    22149041.598 7  92023700.463 7        44.000  
R13  20886301.752 6 111531680.668 6        39.000    20886302.092 7  86746862.183 7        42.000  
R14  22963175.960 7 122406647.412 7        45.000    22963176.353 6  95205169.934 6        40.000  
R21  23664978.745 7 126636094.367 7        46.000    23664979.532 6  98494738.517 6        41.000  
R22  20407317.749 6 108935659.779 6        39.000    20407315.891 5  84727739.993 5        35.000  
R23  20898021.330 8 111790337.684 8        48.000                                                  
R24  24079882.681 7 128765944.520 7        43.000    24079881.662 6 100151292.582 6        41.000  
> 2021 11 07 00 21  0.0000000  0 21                     
G05  21693838.531 7 114001907.653 7        47.000    21693826.058 7  88832657.470 7        47.000  
G13  24990850.547 7 131327806.417 7        42.000    24990838.610 6 102333353.635 6        36.000  
G15  24288464.641 6 127636710.852 6        36.000    24288451.722 6  99457176.597 6        37.000  
G16  24380164.625 6 128118638.893 6        41.000    24380152.242 6  99832703.752 6        36.000  
G18  20656811.909 8 108552283.739 8        49.000    20656800.348 8  84586197.828 8        49.000  
G20  23925889.496 7 125731400.416 7        42.000    23925876.702 6  97972522.503 6        37.000  
G23  23054867.224 7 121154139.535 7        45.000    23054856.860 7  94405825.772 7        45.000  
G25  23341410.409 7 122659940.300 7        45.000    23341401.170 7  95579174.944 7        45.000  
G26  21905298.172 7 115113131.887 7        45.000    21905290.739 7  89698541.927 7        45.000  
G29  20764235.562 8 109116807.216 8        49.000    20764223.518 8  85026079.216 8        49.000  
G31  25246730.524 6 132672409.430 6        40.000    25246714.549 6 103381094.057 6        40.000  
R06  22293790.083 6 118963935.518 6        38.000                                                  
R07  21064821.922 8 112761624.589 8        51.000    21064819.707 7  87703488.086 7        47.000  
R08  22758356.394 7 121869968.633 7        43.000    22758354.947 7  94787751.007 7        45.000  
R12  22194021.574 8 118556465.862 8        49.000    22194020.824 7  92210580.534 7        45.000  
R13  20899085.412 6 111599943.402 6        39.000    20899085.108 7  86799955.383 7        42.000  
R14  22932673.466 7 122244053.391 7        46.000    22932674.628 6  95078707.887 6        41.000  
R21  23698198.832 7 126813857.121 7        47.000    23698198.528 6  98632998.402 6        41.000  
R22  20424527.691 6 109027525.510 6        40.000    20424525.743 5  84799191.115 5        35.000  
R23  20876505.596 8 111675247.548 8        48.000                                                  
R24  24046163.513 7 128585629.882 7        44.000    24046162.763 7 100011047.898 7        42.000  
> 2021 11 07 00 22  0.0000000  0 21                     
G05  21715315.524 7 114114771.950 7        47.000    21715303.677 7  88920603.705 7        47.000  
G13  24963409.678 6 131183604.479 6        39.000    24963397.688 6 102220988.523 6        36.000  
G15  24254587.779 6 127458687.556 6        36.000    24254575.306 6  99318457.095 6        36.000  
G16  24343211.378 6 127924441.437 6        40.000    24343197.959 6  99681381.147 6        37.000  
G18  20642790.552 8 108478601.861 8        49.000    20642779.169 8  84528783.403 8        49.000  
G20  23961943.788 7 125920857.761 7        42.000    23961929.796 6  98120151.566 6        38.000  
G23  23014326.270 7 120941091.856 7        46.000    23014315.120 7  94239814.605 7        45.000  
G25  23383655.584 7 122881937.333 7        46.000    23383645.149 7  95752159.551 7        46.000  
G26  21892005.477 7 115043281.648 7        45.000    21891998.526 7  89644113.137 7        45.000  
G29  20776910.256 8 109183410.482 8        49.000    20776897.748 8  85077977.863 8        49.000  
G31  25277222.689 6 132832654.367 6        41.000    25277208.376 6 103505960.260 6        41.000  
R06  22316510.868 6 119085177.750 6        38.000                                                  
R07  21045770.846 8 112659642.053 8        51.000    21045768.755 8  87624168.352 8        48.000  
R08  22711846.704 7 121620909.372 7        45.000    22711845.025 7  94594038.346 7        45.000  
R12  22239198.825 8 118797795.178 8        48.000    22239197.949 7  92398281.106 7        44.000  
R13  20912453.586 6 111671331.961 6        39.000    20912454.032 7  86855479.758 7        42.000  
R14  22902617.734 7 122083836.183 7        46.000    22902617.734 6  94954094.517 6        41.000  
R21  23731445.864 7 126991764.668 7        46.000    23731444.667 6  98771370.921 6        41.000  
R22  20441907.299 6 109120298.861 6        40.000    20441905.262 5  84871348.181 5        35.000  
R23  20855145.753 8 111560990.634 8        48.000                                                  
R24  24012471.399 7 128405461.026 7        45.000    24012471.399 7  99870916.631 7        42.000  
> 2021 11 07 00 23  0.0000000  0 21                     
G05  21737192.337 8 114229735.068 8        48.000    21737180.454 8  89010185.335 8        48.000  
G13  24936150.537 6 131040355.016 6        41.000    24936138.207 5 102109365.546 5        31.000  
G15  24220822.723 5 127281249.717 5        35.000    24220810.840 6  99180193.917 6        36.000  
G16  24306468.522 6 127731352.462 6        40.000    24306454.566 6  99530922.220 6        39.000  
G18  20629033.530 8 108406311.688 8        48.000    20629022.738 8  84472453.413 8        48.000  
G20  23998169.533 6 126111230.349 6        40.000    23998155.881 6  98268493.840 6        37.000  
G23  22973944.030 7 120728884.968 7        44.000    22973932.844 7  94074458.591 7        44.000  
G25  23426008.171 7 123104501.800 7        43.000    23425998.879 7  95925586.365 7        44.000  
G26  21879131.883 7 114975624.301 7        47.000    21879123.073 7  89591393.115 7        47.000  
G29  20789856.220 8 109251444.595 8        49.000    20789844.141 8  85130991.455 8        49.000  
G31  25307784.187 7 132993261.099 7        42.000    25307772.447 7 103631108.404 7        42.000  
R06  22339753.249 6 119209207.113 6        37.000                                                  
R07  21027263.881 8 112560573.107 8        51.000    21027261.826 7  87547114.765 7        47.000  
R08  22665475.500 7 121372591.216 7        44.000    22665473.356 7  94400902.060 7        46.000  
R12  22284567.184 8 119040145.272 8        48.000    22284566.576 7  92586775.591 7        43.000  
R13  20926405.111 6 111745831.572 6        39.000    20926405.379 7  86913423.872 7        42.000  
R14  22873011.997 7 121926023.837 7        45.000    22873011.729 6  94831351.588 6        40.000  
R21  23764719.236 7 127169816.833 7        44.000    23764717.431 6  98909855.933 6        41.000  
R22  20459456.556 6 109213977.815 6        40.000    20459454.859 6  84944209.570 6        36.000  
R23  20833943.246 8 111447570.398 8        49.000                                                  
R24  23978805.945 7 128225440.344 7        45.000    23978806.463 7  99730900.595 7        42.000  
> 2021 11 07 00 24  0.0000000  0 21                     
G05  21759466.949 8 114346783.572 8        49.000    21759453.816 8  89101391.927 8        49.000  
G13  24909077.609 6 130898085.911 6        41.000    24909066.226 5 101998506.510 5        31.000  
G15  24187173.638 6 127104427.362 6        36.000    24187163.560 5  99042410.273 5        35.000  
G16  24269938.914 6 127539396.162 6        39.000    24269926.709 6  99381345.953 6        37.000  
G18  20615542.490 8 108335415.884 8        48.000    20615531.304 8  84417209.942 8        48.000  
G20  24034566.785 7 126302501.826 7        42.000    24034553.937 6  98417536.524 6        38.000  
G23  22933726.720 7 120517542.158 7        46.000    22933715.873 7  93909775.929 7        44.000  
G25  23468464.791 7 123327616.207 7        45.000    23468456.053 7  96099441.810 7        45.000  
G26  21866678.299 7 114910172.808 7        47.000    21866667.364 7  89540391.963 7        47.000  
G29  20803076.117 8 109320914.501 8        50.000    20803063.984 8  85185123.847 8        50.000  
G31  25338412.085 7 133154208.916 7        42.000    25338398.647 7 103756522.310 7        42.000  
R06  22363514.725 6 119336005.222 6        38.000                                                  
R07  21009306.120 8 112464443.196 8        50.000    21009303.762 7  87472347.091 7        47.000  
R08  22619249.427 7 121125053.436 7        45.000    22619247.569 7  94208372.685 7        47.000  
R12  22330120.237 7 119283483.419 7        47.000    22330119.969 7  92776038.535 7        42.000  
R13  20940935.236 6 111823427.325 6        38.000    20940935.557 6  86973776.099 6        41.000  
R14  22843863.421 7 121770646.303 7        45.000    22843863.654 6  94710502.400 6        41.000  
R21  23798020.501 6 127348016.278 6        41.000    23798018.196 6  99048455.455 6        40.000  
R22  20477175.658 6 109308561.656 6        41.000    20477173.496 6  85017774.784 6        37.000  
R23  20812899.076 8 111334992.020 8        50.000                                                  
R24  23945168.689 7 128045572.545 7        46.000    23945168.653 6  99591003.430 6        40.000  
> 2021 11 07 00 25  0.0000000  0 21                     
G05  21782133.573 8 114465896.739 8        48.000    21782120.081 8  89194207.375 8        49.000  
G13  24882194.611 6 130756819.501 6        40.000    24882183.693 5 101888428.754 5        33.000  
G15  24153645.722 6 126928243.939 6        38.000    24153636.484 6  98905124.518 6        38.000  
G16  24233628.040 6 127348593.701 6        37.000    24233615.586 6  99232668.765 6        37.000  
G18  20602316.679 8 108265911.111 8        49.000    20602304.778 8  84363050.415 8        49.000  
G20  24071131.577 7 126494650.515 7        42.000    24071117.514 5  98567262.773 5        34.000  
G23  22893677.451 7 120307081.046 7        45.000    22893666.801 7  93745780.249 7        45.000  
G25  23511022.871 7 123551257.361 7        45.000    23511013.651 7  96273707.581 7        45.000  
G26  21854644.424 7 114846934.068 7        47.000    21854632.863 7  89491115.034 7        47.000  
G29  20816569.034 8 109391818.971 8        50.000    20816556.400 8  85240374.088 8        50.000  
G31  25369099.255 7 133315472.717 7        42.000    25369085.192 7 103882182.456 7        42.000  
R06  22387791.884 6 119465548.086 6        40.000                                                  
R07  20991900.495 8 112371270.691 8        50.000    20991898.064 8  87399879.650 8        48.000  
R08  22573174.849 7 120878328.724 7        45.000    22573173.491 7  94016475.740 7        46.000  
R12  22375851.159 8 119527771.322 8        48.000    22375850.605 7  92966040.272 7        44.000  
R13  20956043.798 6 111904100.309 6        40.000    20956044.191 7  87036521.713 7        42.000  
R14  22815176.510 7 121617726.713 7        44.000    22815176.349 7  94591564.971 7        42.000  
R21  23831347.640 6 127526358.960 6        41.000    23831345.836 6  99187166.306 6        39.000  
R22  20495062.997 7 109404044.695 7        42.000    20495060.960 6  85092039.376 6        36.000  
R23  20792012.011 8 111223255.185 8        49.000                                                  
R24  23911560.523 7 127865855.479 7        46.000    23911559.129 6  99451223.578 6        39.000  
> 2021 11 07 00 26  0.0000000  0 21                     
G05  21805186.417 7 114587041.762 7        47.000    21805173.283 7  89288606.085 7        47.000  
G13  24855505.849 6 130616566.191 6        40.000    24855493.520 5 101779140.408 5        31.000  
G15  24120243.801 6 126752711.690 6        40.000    24120233.294 6  98768346.264 6        40.000  
G16  24197542.799 6 127158950.705 6        41.000    24197527.932 6  99084894.993 6        38.000  
G18  20589352.113 8 108197781.688 8        49.000    20589340.480 8  84309962.569 8        49.000  
G20  24107857.762 6 126687641.983 6        41.000    24107842.341 6  98717645.713 6        38.000  
G23  22853796.507 7 120097506.792 7        45.000    22853786.161 7  93582475.640 7        44.000  
G25  23553673.906 7 123775389.504 7        44.000    23553664.096 7  96448355.904 7        44.000  
G26  21843030.041 7 114785902.239 7        47.000    21843018.641 7  89443557.781 7        47.000  
G29  20830332.202 8 109464144.415 8        50.000    20830319.497 8  85296731.577 8        50.000  
G31  25399840.943 6 133477013.845 6        40.000    25399826.505 6 104008058.643 6        40.000  
R06  22412576.379 6 119597797.942 6        40.000                                                  
R07  20975048.469 8 112281061.389 8        50.000    20975046.218 8  87329716.920 8        48.000  
R08  22527256.016 7 120632438.281 7        45.000    22527255.266 7  93825227.618 7        47.000  
R12  22421751.712 8 119772958.370 8        48.000    22421751.390 7  93156741.237 7        44.000  
R13  20971721.436 6 111987815.886 6        39.000    20971721.740 7  87101633.782 7        42.000  
R14  22786952.442 7 121467275.669 7        44.000    22786952.817 7  94474547.509 7        43.000  
