     3.02           OBSERVATION DATA    M                   RINEX VERSION / TYPE
HIVE                geosystems.aero     18-JAN-22 11:53     PGM / RUN BY / DATE 
MAHA                                                        MARKER NAME         
1105                                                        MARKER NUMBER       
                                                            MARKER TYPE         
geosystems.aero     Industrial Geodetic Systems             OBSERVER / AGENCY   
                    RNG FASA+                               REC # / TYPE / VERS 
                    RNG80971.00     NONE                    ANT # / TYPE        
  3156865.0681  3445693.1353  4326217.3001                  APPROX POSITION XYZ 
        0.0000        0.0000        0.0000                  ANTENNA: DELTA H/E/N
G  6   C1C L1C S1C C2P L2P S2P                              SYS / # / OBS TYPES 
R  6   C1C L1C S1C C2P L2P S2P                              SYS / # / OBS TYPES 
    60.000                                                  INTERVAL            
  2021    11    07    00    00   00.0000000     GPS         TIME OF FIRST OBS   
  2021    11    07    23    59   00.0000000     GPS         TIME OF LAST OBS    
 C1C    0.000 C1P    0.000 C2C    0.000 C2P    0.000        GLONASS COD/PHS/BIS 
    18                                                      LEAP SECONDS        
    50                                                      # OF SATELLITES     
   G01   332   332   332   332   332   332                  PRN / # OF OBS      
   G02   104   104   104   100   100   100                  PRN / # OF OBS      
   G04   307   307   307   307   307   307                  PRN / # OF OBS      
   G05   122   122   122   122   122   122                  PRN / # OF OBS      
   G06   198   198   198   197   197   197                  PRN / # OF OBS      
   G07   137   137   137   137   137   137                  PRN / # OF OBS      
   G08   293   293   293   286   286   286                  PRN / # OF OBS      
   G09   215   215   215   215   215   215                  PRN / # OF OBS      
   G10   412   412   412   412   412   412                  PRN / # OF OBS      
   G12     9     9     9     9     9     9                  PRN / # OF OBS      
   G13   165   165   165   165   165   165                  PRN / # OF OBS      
   G15   239   239   239   239   239   239                  PRN / # OF OBS      
   G16   428   428   428   416   416   416                  PRN / # OF OBS      
   G17   150   150   150   149   149   149                  PRN / # OF OBS      
   G18   301   301   301   300   300   300                  PRN / # OF OBS      
   G19    98    98    98    94    94    94                  PRN / # OF OBS      
   G20    88    88    88    70    70    70                  PRN / # OF OBS      
   G21   363   363   363   363   363   363                  PRN / # OF OBS      
   G22   409   409   409   404   404   404                  PRN / # OF OBS      
   G23   354   354   354   354   354   354                  PRN / # OF OBS      
   G24   136   136   136   136   136   136                  PRN / # OF OBS      
   G25    94    94    94    93    93    93                  PRN / # OF OBS      
   G26   437   437   437   437   437   437                  PRN / # OF OBS      
   G27   336   336   336   336   336   336                  PRN / # OF OBS      
   G29   172   172   172   172   172   172                  PRN / # OF OBS      
   G30    58    58    58    58    58    58                  PRN / # OF OBS      
   G31   331   331   331   331   331   331                  PRN / # OF OBS      
   G32   361   361   361   361   361   361                  PRN / # OF OBS      
   R01   312   312   312   312   312   312                  PRN / # OF OBS      
   R02   357   357   357   357   357   357                  PRN / # OF OBS      
   R03   387   387   387   387   387   387                  PRN / # OF OBS      
   R04   351   351   351   351   351   351                  PRN / # OF OBS      
   R05   224   224   224   224   224   224                  PRN / # OF OBS      
   R06   141   141   141     0     0     0                  PRN / # OF OBS      
   R07   172   172   172   172   172   172                  PRN / # OF OBS      
   R08   269   269   269   269   269   269                  PRN / # OF OBS      
   R10    35    35    35     0     0     0                  PRN / # OF OBS      
   R12   245   245   245   245   245   245                  PRN / # OF OBS      
   R13   308   308   308   308   308   308                  PRN / # OF OBS      
   R14   417   417   417   417   417   417                  PRN / # OF OBS      
   R15   292   292   292   292   292   292                  PRN / # OF OBS      
   R16    78    78    78    73    73    73                  PRN / # OF OBS      
   R17   313   313   313   313   313   313                  PRN / # OF OBS      
   R18   277   277   277   277   277   277                  PRN / # OF OBS      
   R19   206   206   206   206   206   206                  PRN / # OF OBS      
   R20   154   154   154   154   154   154                  PRN / # OF OBS      
   R21   160   160   160   160   160   160                  PRN / # OF OBS      
   R22   158   158   158   145   145   145                  PRN / # OF OBS      
   R23   296   296   296     0     0     0                  PRN / # OF OBS      
   R24   356   356   356   356   356   356                  PRN / # OF OBS      
                                                            END OF HEADER       
> 2021 11 07 00 00  0.0000000  0 20                     
G02  25506023.530 6 134035063.678 6        39.500    25506024.470 3 104442907.886 3        19.000  
G05  21313270.478 8 112002004.197 8        48.000    21313272.838 7  87274293.162 7        46.000  
G12  25010820.654 6 131432750.641 6        38.000    25010822.914 5 102415130.804 5        35.000  
G15  24961991.394 6 131176147.680 6        37.750    24961995.254 5 102215180.055 5        34.500  
G18  21037521.200 7 110552935.850 7        46.500    21037524.600 8  86145146.853 8        48.000  
G20  23195942.206 6 121895516.301 6        41.500    23195945.686 3  94983520.645 3        23.000  
G23  23923050.262 6 125716483.621 6        40.000    23923054.082 6  97960897.124 6        39.500  
G25  22463081.372 7 118044296.637 7        44.000    22463086.512 7  91982570.196 7        42.500  
G26  22322819.912 6 117307215.911 6        41.500    22322827.012 7  91408219.617 7        44.500  
G29  20548271.504 8 107981906.846 8        48.000    20548274.724 8  84141751.452 8        50.000  
G31  24674393.996 6 129664796.888 6        40.500    24674397.016 5 101037500.492 5        35.000  
R06  21923154.476 6 116986168.807 6        37.500                                                  
R07  21534572.440 7 115276261.713 7        46.000    21534575.640 7  89659316.208 7        42.500  
R08  23710636.524 5 126969384.398 5        33.500    23710637.404 5  98753966.093 5        34.500  
R12  21314062.080 8 113855891.744 8        48.000    21314065.180 7  88554580.582 7        44.500  
R13  20799171.884 6 111066419.579 6        37.500    20799175.044 6  86384997.474 6        39.000  
R14  23699871.464 7 126333651.142 7        42.000    23699876.164 5  98259506.841 5        35.500  
R21  22968588.068 7 122909566.741 7        44.250    22968589.368 6  95596331.840 6        37.500  
R22  20098063.428 6 107284841.096 6        37.500    20098064.528 5  83443773.243 5        32.500  
R23  21407621.160 7 114516350.576 7        42.500                                                  
> 2021 11 07 00 01  0.0000000  0 20                     
G02  25537722.650 6 134201643.286 6        38.500    25537723.510 3 104572710.164 3        18.500  
G05  21325865.378 7 112068191.690 7        47.500    21325867.938 7  87325867.845 7        46.000  
G12  25055606.734 6 131668102.899 6        37.250    25055609.174 5 102598522.214 5        34.000  
G15  24926868.794 6 130991575.321 6        37.500    24926871.714 5 102071357.438 5        34.500  
G18  21017900.780 7 110449830.133 7        47.000    21017904.020 7  86064804.763 7        47.750  
G20  23227580.486 6 122061775.310 6        40.750    23227583.106 3  95113073.144 3        22.500  
G23  23880083.722 6 125490694.359 6        39.000    23880087.702 6  97784957.446 6        38.500  
G25  22502007.350 7 118248858.570 7        43.000    22502013.630 7  92141969.021 7        43.000  
G26  22301170.572 7 117193448.923 7        42.250    22301177.592 7  91319570.018 7        44.500  
G29  20554847.864 8 108016464.324 8        48.500    20554850.784 8  84168679.367 8        49.500  
G31  24702243.916 6 129811149.847 6        41.000    24702247.236 6 101151541.742 6        36.000  
R06  21934580.996 6 117047137.096 6        38.000                                                  
R07  21505451.160 7 115120373.713 7        46.500    21505453.860 7  89538070.053 7        43.000  
R08  23662660.584 5 126712480.502 5        32.000    23662662.784 5  98554152.035 5        35.500  
R12  21353516.960 8 114066650.903 8        48.000    21353519.880 7  88718504.304 7        44.500  
R13  20799734.464 6 111069412.802 6        38.250    20799735.364 6  86387325.517 6        39.500  
R14  23661708.264 7 126130222.425 7        42.000    23661712.084 5  98101284.537 5        35.000  
R21  23000849.888 7 123082215.036 7        42.500    23000851.488 6  95730613.849 6        37.250  
R22  20111192.928 6 107354920.544 6        38.500    20111192.948 5  83498279.479 5        33.000  
R23  21382918.360 7 114384200.299 7        43.500                                                  
> 2021 11 07 00 02  0.0000000  0 20                     
G02  25569388.030 5 134368055.582 5        35.000    25569390.970 2 104702381.991 2        17.250  
G05  21338915.358 7 112136773.888 7        46.000    21338918.998 7  87379308.546 7        45.500  
G12  25100404.594 5 131903518.340 5        35.500    25100407.454 5 102781962.802 5        35.250  
G15  24891757.954 6 130807067.852 6        37.500    24891761.594 5 101927585.394 5        35.500  
G18  20998538.820 7 110348083.831 7        47.500    20998542.420 8  85985521.942 8        48.000  
G20  23259468.406 7 122229348.133 7        42.000    23259471.346 3  95243649.346 3        23.000  
G23  23837197.282 6 125265326.474 6        38.000    23837202.222 6  97609346.105 6        40.000  
G25  22541126.470 7 118454430.775 7        42.000    22541133.170 7  92302155.131 7        44.000  
G26  22279886.652 7 117081600.196 7        42.500    22279893.572 7  91232415.123 7        44.500  
G29  20561688.204 8 108052409.440 8        49.000    20561690.904 8  84196688.556 8        50.000  
G31  24730255.116 6 129958351.249 6        40.500    24730259.276 6 101266244.107 6        37.000  
R06  21946587.636 6 117111210.782 6        37.000                                                  
R07  21476771.400 7 114966849.668 7        47.000    21476774.640 7  89418662.452 7        44.250  
R08  23614693.204 5 126455618.367 5        32.000    23614695.644 5  98354370.430 5        35.000  
R12  21393303.040 8 114279177.555 8        48.500    21393305.160 7  88883802.780 7        44.000  
R13  20800915.044 6 111075714.831 6        39.000    20800914.724 6  86392227.106 6        38.750  
R14  23623882.864 7 125928587.648 7        43.500    23623884.004 5  97944457.523 5        33.000  
R21  23033150.028 6 123255062.159 6        41.750    23033154.668 6  95865050.494 6        39.500  
R22  20124508.608 6 107425998.100 6        37.500    20124508.488 5  83553562.032 5        33.500  
R23  21358359.660 7 114252827.250 7        44.000                                                  
> 2021 11 07 00 03  0.0000000  0 20                     
G02  25601024.510 6 134534297.809 6        38.750    25601026.210 3 104831921.350 3        19.500  
G05  21352420.578 7 112207740.712 7        46.000    21352423.158 7  87434607.417 7        45.000  
G12  25145210.294 5 132138980.200 5        34.500    25145214.514 5 102965439.534 5        33.250  
G15  24856663.796 6 130622650.007 6        37.500    24856668.196 6 101783883.192 6        36.250  
G18  20979436.102 7 110247699.537 7        46.500    20979439.862 7  85907300.439 7        47.000  
G20  23291603.046 6 122398216.196 6        41.000    23291605.386 3  95375234.854 3        22.500  
G23  23794395.862 6 125040401.379 6        39.750    23794400.542 6  97434079.782 6        40.000  
G25  22580434.230 7 118660993.820 7        42.500    22580440.930 7  92463113.329 7        43.750  
G26  22258971.232 7 116971686.059 7        43.500    22258977.472 7  91146767.755 7        45.250  
G29  20568792.824 8 108089746.527 8        48.500    20568795.844 8  84225782.389 8        50.000  
G31  24758423.096 6 130106377.681 6        39.500    24758427.996 6 101381589.352 6        37.000  
R06  21959176.536 6 117178381.486 6        36.500                                                  
R07  21448538.480 7 114815721.053 7        46.250    21448542.460 7  89301118.055 7        43.500  
R08  23566740.344 5 126198832.133 5        34.500    23566742.064 5  98154647.785 5        33.500  
R12  21433412.400 8 114493437.925 8        48.000    21433415.280 7  89050449.724 7        43.750  
R13  20802714.324 6 111085323.783 6        39.000    20802714.324 6  86399700.731 6        39.500  
R14  23586399.204 6 125728779.346 6        41.750    23586400.504 5  97789051.037 5        32.000  
R21  23065488.088 6 123428106.434 6        41.000    23065492.148 6  95999640.361 6        38.500  
R22  20138008.788 6 107498069.218 6        38.500    20138009.588 5  83609617.348 5        32.750  
R23  21333945.440 7 114122233.164 7        44.500                                                  
> 2021 11 07 00 04  0.0000000  0 20                     
G02  25632626.830 6 134700365.569 6        39.000    25632627.950 3 104961324.795 3        19.750  
G05  21366376.698 7 112281080.647 7        46.500    21366379.118 7  87491755.432 7        44.750  
G12  25190021.832 5 132374471.106 5        32.000    25190026.992 5 103148939.032 5        34.500  
G15  24821593.056 6 130438346.811 6        36.500    24821596.836 5 101640270.325 5        35.000  
G18  20960593.462 7 110148679.153 7        45.000    20960596.842 8  85830141.742 8        48.000  
G20  23323980.506 6 122568360.369 6        41.250    23323981.586 3  95507814.755 3        20.750  
G23  23751682.022 7 124815939.790 7        42.000    23751686.602 6  97259174.727 6        41.750  
G25  22619927.450 7 118868527.549 7        43.000    22619933.250 7  92624827.880 7        43.500  
G26  22238425.532 7 116863722.106 7        43.500    22238432.532 7  91062639.976 7        45.000  
G29  20576163.064 8 108128479.016 8        48.250    20576166.164 8  84255963.551 8        49.500  
G31  24786744.596 6 130255206.316 6        40.000    24786748.476 6 101497559.682 6        36.500  
R06  21972343.556 6 117248638.476 6        37.500                                                  
R07  21420761.200 7 114667019.417 7        47.500    21420763.200 7  89185461.254 7        43.250  
R08  23518808.684 5 125942155.496 5        34.500    23518809.524 5  97955010.351 5        35.500  
R12  21473840.360 7 114709396.989 7        47.000    21473843.040 7  89218417.857 7        43.000  
R13  20805130.804 6 111098236.326 6        38.500    20805133.664 6  86409743.803 6        40.500  
R14  23549264.864 7 125530828.321 7        43.000    23549267.324 5  97635089.135 5        32.500  
R21  23097863.708 7 123601345.801 7        43.000    23097863.008 6  96134382.051 6        37.000  
R22  20151695.128 6 107571128.914 6        38.500    20151696.188 5  83666441.564 5        33.000  
R23  21309677.980 7 113992419.258 7        44.500                                                  
> 2021 11 07 00 05  0.0000000  0 21                     
G02  25664194.070 6 134866254.706 6        37.000    25664196.350 3 105090589.104 3        19.000  
G05  21380781.658 7 112356780.258 7        47.750    21380784.098 7  87550742.144 7        44.750  
G12  25234835.712 5 132609972.475 5        31.500    25234841.952 5 103332446.609 5        33.250  
G15  24786548.056 6 130254182.824 6        37.000    24786551.476 5 101496765.876 5        34.000  
G16  25046824.534 5 131621948.724 5        35.250                                                  
G18  20942009.762 7 110051023.200 7        46.000    20942013.182 8  85754046.204 8        48.000  
G20  23356595.766 6 122739759.951 6        40.750    23356597.686 3  95641372.834 3        21.000  
G23  23709060.942 7 124591961.374 7        42.250    23709064.582 7  97084646.125 7        42.000  
G25  22659600.250 7 119077010.550 7        43.250    22659606.050 7  92787282.175 7        43.250  
G26  22218254.752 7 116757722.471 7        43.750    22218260.872 7  90980042.869 7        44.500  
G29  20583800.324 8 108168609.748 8        48.750    20583803.344 8  84287234.239 8        49.500  
G31  24815214.816 6 130404812.659 6        41.000    24815217.816 6 101614136.082 6        36.000  
R06  21986083.136 6 117321969.881 6        36.000                                                  
R07  21393440.660 7 114520773.786 7        47.000    21393443.460 7  89071714.673 7        43.000  
R08  23470902.804 6 125685620.209 6        36.500    23470904.104 6  97755482.939 6        37.000  
R12  21514579.900 7 114927018.814 7        47.500    21514582.700 7  89387679.250 7        43.500  
R13  20808167.684 6 111114447.919 6        39.500    20808169.904 6  86422352.782 6        40.250  
R14  23512483.484 6 125334764.449 6        40.000    23512487.004 5  97482595.006 5        33.500  
R21  23130273.928 7 123774776.875 7        44.000    23130273.108 6  96269272.865 6        36.250  
R22  20165566.108 6 107645171.247 6        38.000    20165566.868 5  83724030.053 5        33.250  
R23  21285557.240 7 113863385.806 7        45.500                                                  
> 2021 11 07 00 06  0.0000000  0 21                     
G02  25695726.770 6 135031960.515 6        36.750    25695729.770 3 105219710.446 3        19.000  
G05  21395633.658 7 112434826.896 7        47.500    21395635.698 7  87611557.692 7        44.500  
G12  25279650.652 5 132845465.852 5        31.000    25279654.872 5 103515947.896 5        33.000  
G15  24751533.316 6 130070182.374 6        36.500    24751537.296 5 101353388.875 5        34.500  
G16  25007056.694 5 131412966.612 5        33.500    25007058.614 2 102399716.794 2        16.000  
G18  20923686.562 7 109954732.077 7        45.500    20923689.862 8  85679014.182 8        48.250  
G20  23389447.844 6 122912394.908 6        41.750    23389449.124 3  95775893.565 3        21.500  
G23  23666535.204 7 124368485.638 7        42.000    23666538.704 7  96910509.219 7        42.750  
G25  22699449.770 7 119286421.459 7        42.500    22699456.230 7  92950459.498 7        43.000  
G26  22198460.432 7 116653700.959 7        44.000    22198466.112 7  90898987.134 7        44.500  
G29  20591703.064 8 108210140.701 8        48.000    20591706.464 8  84319596.029 8        50.000  
G31  24843827.396 6 130555172.317 6        40.500    24843830.076 6 101731299.433 6        36.000  
R06  22000399.636 5 117398362.843 5        35.500                                                  
R07  21366585.080 7 114377013.943 7        46.000    21366588.640 7  88959901.503 7        44.000  
R08  23423030.364 6 125429259.402 6        37.750    23423030.684 6  97556091.252 6        38.500  
R12  21555624.700 7 115146267.330 7        47.750    21555626.300 7  89558205.853 7        44.000  
R13  20811820.084 6 111133952.858 6        39.000    20811822.484 6  86437523.259 6        40.500  
R14  23476062.804 6 125140617.598 6        39.500    23476065.164 5  97331591.890 5        33.000  
R21  23162718.128 7 123948396.872 7        43.000    23162721.228 6  96404310.583 6        39.500  
R22  20179618.768 6 107720190.166 6        37.750    20179620.668 5  83782378.110 5        33.500  
R23  21261582.380 7 113735133.093 7        45.250                                                  
> 2021 11 07 00 07  0.0000000  0 21                     
G02  25727224.430 6 135197481.709 6        39.000    25727227.030 3 105348687.982 3        20.000  
G05  21410929.618 7 112515208.783 7        47.000    21410931.558 7  87674192.933 7        44.500  
G12  25324458.212 4 133080935.985 4        29.500    25324462.992 5 103699431.170 5        30.500  
G15  24716555.076 6 129886371.872 6        36.500    24716559.356 5 101210159.997 5        34.500  
G16  24967432.534 5 131204742.829 5        35.000    24967434.134 2 102237464.498 2        16.750  
G18  20905623.062 7 109859809.013 7        45.000    20905626.822 8  85605048.191 8        48.500  
G20  23422531.264 6 123086247.331 6        41.500    23422532.044 3  95911362.967 3        21.500  
G23  23624108.144 6 124145535.012 6        41.500    23624112.344 7  96736781.524 7        42.250  
G25  22739472.030 7 119496741.600 7        43.000    22739478.670 7  93114345.291 7        43.000  
G26  22179045.714 7 116551674.238 7        45.500    22179051.494 7  90819485.784 7        44.000  
G29  20599873.884 8 108253077.029 8        48.750    20599876.784 8  84353052.909 8        50.000  
G31  24872578.676 6 130706263.825 6        41.000    24872581.516 5 101849033.043 5        34.500  
R06  22015288.476 6 117477806.839 6        36.000                                                  
R07  21340199.140 7 114235770.844 7        46.000    21340202.800 7  88850045.814 7        44.000  
R08  23375195.128 6 125173108.391 6        38.000    23375195.728 6  97356862.740 6        37.500  
R12  21596967.096 8 115367109.197 8        48.000    21596968.436 7  89729971.731 7        44.000  
R13  20816087.424 6 111156747.342 6        38.250    20816090.504 6  86455252.290 6        40.000  
R14  23440006.144 6 124948420.292 6        39.500    23440009.744 5  97182105.050 5        34.500  
R21  23195197.068 6 124122205.810 6        40.000    23195200.648 6  96539495.162 6        39.250  
R22  20193854.408 6 107796182.797 6        38.000    20193857.048 5  83841483.475 5        33.500  
R23  21237752.420 7 113607663.971 7        45.500                                                  
> 2021 11 07 00 08  0.0000000  0 21                     
G02  25758684.670 5 135362812.747 5        35.000    25758687.030 2 105477517.370 2        16.750  
G05  21426667.158 7 112597912.066 7        45.500    21426669.958 7  87738637.064 7        43.750  
G12  25369258.292 4 133316363.860 4        29.250    25369263.792 4 103882881.435 4        29.000  
G15  24681618.256 6 129702775.912 6        37.000    24681621.476 5 101067098.218 5        33.500  
G16  24927956.094 6 130997297.994 6        36.500    24927958.634 2 102075819.166 2        14.750  
G18  20887820.222 7 109766253.590 7        45.500    20887823.562 8  85532147.882 8        49.000  
G20  23455841.564 7 123261296.393 7        42.000    23455842.784 3  96047764.834 3        22.000  
G23  23581786.484 6 123923128.537 6        40.500    23581789.484 6  96563477.824 6        41.000  
G25  22779663.690 7 119707948.833 7        42.500    22779669.470 7  93278922.321 7        42.500  
G26  22160012.774 7 116451655.053 7        45.500    22160018.194 7  90741548.745 7        44.000  
G29  20608312.024 8 108297420.710 8        48.500    20608315.164 8  84387606.425 8        49.750  
G31  24901464.314 6 130858062.012 6        40.250    24901467.814 5 101967317.318 5        34.500  
R06  22030743.976 6 117560287.440 6        36.500                                                  
R07  21314289.800 7 114097073.164 7        47.500    21314293.860 7  88742169.907 7        45.000  
R08  23327405.608 6 124917199.510 6        37.500    23327406.008 6  97157822.562 6        36.500  
R12  21638599.916 8 115589507.117 8        48.500    21638601.496 7  89902947.868 7        44.000  
R13  20820970.824 6 111182823.109 6        39.250    20820973.584 6  86475533.434 6        39.750  
R14  23404321.724 6 124758201.233 6        37.750    23404324.844 5  97034156.887 5        32.750  
R21  23227714.028 6 124296199.501 6        41.500    23227714.868 6  96674823.503 6        38.000  
R22  20208271.408 6 107873142.859 6        37.500    20208273.708 5  83901341.313 5        33.000  
R23  21214069.160 7 113480978.274 7        46.000                                                  
> 2021 11 07 00 09  0.0000000  0 20                     
G02  25790111.128 6 135527949.848 6        39.000    25790111.408 2 105606195.611 2        16.000  
G05  21442844.038 7 112682922.252 7        44.750    21442846.858 7  87804878.788 7        43.500  
G15  24646726.296 6 129519418.623 6        37.000    24646729.556 5 100924222.414 5        32.750  
G16  24888632.854 6 130790652.408 6        36.000    24888634.034 2 101914796.654 2        15.500  
G18  20870277.742 7 109674065.861 7        45.500    20870280.582 8  85460313.311 8        48.500  
G20  23489376.344 7 123437521.587 7        42.000    23489377.304 3  96185083.151 3        22.000  
G23  23539570.704 6 123701285.725 6        40.500    23539575.024 7  96390613.308 7        42.000  
G25  22820019.468 6 119920021.632 6        41.250    22820025.848 7  93444173.816 7        42.750  
G26  22141364.394 7 116353656.619 7        44.000    22141369.654 7  90665186.341 7        45.000  
G29  20617018.344 8 108343173.519 8        48.500    20617021.504 8  84423257.952 8        49.000  
G31  24930480.094 6 131010542.313 6        38.500    24930483.574 5 102086133.153 5        33.500  
R06  22046768.776 6 117645789.889 6        37.000                                                  
R07  21288860.820 7 113960948.232 7        47.000    21288863.800 7  88636295.014 7        44.500  
R08  23279666.528 6 124661565.820 6        37.000    23279668.088 6  96958996.398 6        36.500  
R12  21680516.836 8 115813424.793 8        48.000    21680519.556 7  90077106.048 7        44.500  
R13  20826469.224 6 111212172.785 6        39.250    20826470.004 6  86498360.943 6        39.500  
R14  23369013.908 6 124569989.793 6        38.000    23369016.548 5  96887770.149 5        32.500  
R21  23260259.428 6 124470375.518 6        39.250    23260263.068 6  96810293.685 6        36.500  
R22  20222869.008 6 107951064.990 6        37.000    20222871.028 5  83961947.422 5        32.750  
R23  21190532.980 7 113355076.595 7        46.000                                                  
> 2021 11 07 00 10  0.0000000  0 19                     
G05  21459457.858 7 112770225.512 7        47.000    21459460.918 7  87872907.331 7        44.500  
G15  24611884.736 6 129336325.060 6        36.500    24611888.276 5 100781552.061 5        33.500  
G16  24849465.976 5 130584826.766 5        34.500    24849467.236 2 101754412.965 2        13.750  
G18  20852994.982 7 109583246.678 7        46.000    20852998.622 8  85389545.118 8        49.000  
G20  23523130.724 7 123614903.339 7        42.500    23523131.984 3  96323302.675 3        22.000  
G23  23497466.024 6 123480027.076 6        40.500    23497471.384 7  96218203.997 7        42.750  
G25  22860536.868 7 120132939.245 7        42.000    22860542.428 7  93610083.603 7        42.000  
G26  22123102.354 7 116257692.727 7        43.250    22123108.934 7  90590409.298 7        45.500  
G29  20625993.684 8 108390338.366 8        49.000    20625996.564 8  84460009.779 8        49.500  
G31  24959622.054 6 131163681.248 6        38.750    24959625.094 5 102205462.126 5        34.500  
R06  22063355.936 6 117734299.992 6        36.500                                                  
R07  21263917.720 7 113827424.478 7        47.000    21263920.160 7  88532443.226 7        43.500  
R08  23231986.968 6 124406241.181 6        36.000    23231988.168 6  96760410.603 6        37.000  
R12  21722712.556 8 116038826.686 8        48.000    21722715.776 7  90252418.613 7        44.500  
R13  20832576.384 6 111244788.553 6        38.750    20832578.704 6  86523728.740 6        39.500  
R14  23334088.088 6 124383815.218 6        36.500    23334091.488 5  96742967.752 5        34.500  
R21  23292844.248 6 124644732.191 6        40.500    23292847.128 6  96945904.349 6        37.750  
R22  20237646.868 6 108029944.352 6        37.500    20237648.128 5  84023298.028 5        33.000  
R23  21167144.440 7 113229959.767 7        45.500                                                  
> 2021 11 07 00 11  0.0000000  0 19                     
G05  21476505.138 7 112859810.033 7        47.500    21476507.938 7  87942713.465 7        44.750  
G15  24577098.258 6 129153523.302 6        36.000    24577101.818 5 100639109.208 5        31.750  
G16  24810458.616 5 130379845.098 5        35.000    24810460.976 2 101594686.975 2        15.500  
G18  20835973.782 7 109493798.735 7        47.000    20835976.762 8  85319845.459 8        49.000  
G20  23557102.624 7 123793423.915 7        42.500    23557103.824 3  96462409.603 3        22.500  
G23  23455477.664 6 123259374.897 6        39.500    23455482.104 7  96046267.274 7        42.500  
G25  22901211.188 7 120346682.870 7        42.000    22901217.088 7  93776637.053 7        43.000  
G26  22105231.294 7 116163778.892 7        44.500    22105237.594 7  90517229.685 7        45.500  
G29  20635238.284 7 108438920.564 7        47.250    20635241.744 8  84497866.023 8        49.000  
G31  24988884.234 6 131317456.939 6        37.500    24988887.754 5 102325287.344 5        34.000  
R06  22080501.316 6 117825804.987 6        36.250                                                  
R07  21239464.840 7 113696531.864 7        45.750    21239467.400 7  88430637.914 7        42.250  
R08  23184370.828 6 124151262.014 6        36.000    23184372.348 6  96562093.529 6        37.500  
R12  21765180.496 7 116265679.041 7        47.500    21765182.936 7  90428859.312 7        43.750  
R13  20839294.024 6 111280664.722 6        38.500    20839296.744 6  86551632.404 6        40.000  
R14  23299549.768 6 124199709.954 6        36.500    23299555.008 5  96599774.785 5        35.000  
R21  23325461.488 7 124819269.315 7        43.000    23325463.928 6  97081655.423 6        38.000  
R22  20252603.888 6 108109778.000 6        37.000    20252603.428 5  84085390.886 5        33.000  
R23  21143902.460 7 113105631.520 7        46.500                                                  
> 2021 11 07 00 12  0.0000000  0 19                     
G05  21493983.298 7 112951659.937 7        47.500    21493986.138 7  88014284.827 7        44.500  
G15  24542372.958 6 128971037.894 6        37.000    24542375.698 5 100496912.747 5        31.000  
G16  24771616.656 5 130175728.632 5        35.750    24771618.316 2 101435635.249 2        14.750  
G18  20819213.522 7 109405721.721 7        46.500    20819216.802 8  85251214.028 8        49.250  
G20  23591286.524 7 123973062.654 7        42.000    23591288.964 3  96602387.839 3        22.000  
G23  23413607.584 6 123039348.727 6        39.500    23413611.924 6  95874818.347 6        41.500  
G25  22942037.708 7 120561230.847 7        42.500    22942044.328 7  93943817.254 7        42.000  
G26  22087751.474 6 116071927.507 6        41.750    22087758.614 7  90445657.142 7        44.750  
G29  20644753.584 7 108488921.707 7        47.500    20644756.664 8  84536827.938 8        49.250  
G31  25018263.774 6 131471844.939 6        39.000    25018266.714 5 102445589.708 5        35.000  
R06  22098210.436 5 117920288.316 5        34.500                                                  
R07  21215509.440 7 113568297.059 7        46.000    21215511.800 7  88330899.755 7        43.500  
R08  23136826.528 6 123896661.638 6        36.000    23136827.988 6  96364071.094 6        39.500  
R12  21807911.896 7 116493945.068 7        46.500    21807915.056 7  90606399.541 7        43.750  
R13  20846621.284 6 111319790.064 6        38.000    20846623.084 6  86582063.194 6        39.250  
R14  23265405.748 6 124017702.200 6        37.500    23265410.328 5  96458213.213 5        35.500  
R21  23358111.488 7 124993984.482 7        42.000    23358113.108 6  97217544.914 6        37.500  
R22  20267736.528 6 108190561.384 6        38.250    20267736.468 5  84148222.415 5        33.250  
R23  21120808.760 7 112982091.918 7        46.500                                                  
> 2021 11 07 00 13  0.0000000  0 19                     
G05  21511889.818 7 113045759.453 7        46.000    21511892.458 7  88087609.125 7        44.250  
G15  24507712.278 6 128788893.041 6        37.750    24507714.458 5 100354981.679 5        32.000  
G16  24732943.676 6 129972497.261 6        36.250    24732944.676 2 101277273.062 2        13.750  
G18  20802713.542 7 109319014.895 7        47.500    20802716.762 8  85183650.275 8        49.500  
G20  23625679.344 6 124153798.944 6        41.500    23625681.904 3  96743221.285 3        22.750  
G23  23371861.106 6 122819967.568 6        40.000    23371865.226 6  95703872.046 6        41.500  
G25  22983013.888 7 120776561.052 7        43.000    22983019.888 6  94111606.983 6        41.000  
G26  22070667.994 7 115982150.176 7        44.000    22070675.594 7  90375700.815 7        45.500  
G29  20654538.164 8 108540342.928 8        48.000    20654542.044 8  84576896.406 8        49.000  
G31  25047754.874 6 131626820.607 6        39.000    25047758.174 5 102566350.069 5        35.000  
R06  22116469.736 5 118017732.621 5        35.000                                                  
R07  21192056.380 7 113442746.311 7        47.750    21192059.480 7  88233249.223 7        44.500  
R08  23089357.988 6 123642473.462 6        37.000    23089359.368 6  96166369.235 6        39.000  
R12  21850901.856 7 116723587.980 7        44.500    21850904.576 7  90785010.690 7        44.000  
R13  20854554.444 6 111362153.812 6        39.000    20854556.104 6  86615012.759 6        38.750  
R14  23231659.428 6 123837819.824 6        39.000    23231664.268 6  96318304.735 6        36.000  
R21  23390792.984 6 125168874.344 6        40.500    23390795.284 6  97353570.406 6        36.500  
R22  20283045.548 6 108272288.151 6        39.250    20283046.928 5  84211787.683 5        33.000  
R23  21097862.420 7 112859341.158 7        47.500                                                  
> 2021 11 07 00 14  0.0000000  0 19                     
G05  21530221.738 7 113142093.922 7        46.500    21530224.178 7  88162674.960 7        45.000  
G15  24473120.818 5 128607115.955 5        35.500    24473124.178 5 100213337.210 5        35.250  
G16  24694442.816 5 129770173.537 5        35.500    24694443.376 2 101119618.153 2        15.500  
G18  20786474.762 7 109233679.708 7        46.750    20786478.162 8  85117155.364 8        49.000  
G20  23660277.584 6 124335613.944 6        41.250    23660280.684 3  96884895.284 3        22.000  
G23  23330241.386 7 122601253.042 7        43.000    23330244.886 6  95533445.139 6        39.500  
G25  23024134.848 7 120992653.744 7        42.000    23024140.548 6  94279990.890 6        40.500  
G26  22053981.754 7 115894460.865 7        44.750    22053988.434 7  90307371.484 7        46.000  
G29  20664594.664 7 108593188.003 7        47.000    20664597.844 8  84618074.395 8        50.000  
G31  25077353.054 6 131782360.944 6        37.250    25077356.594 5 102687550.291 5        35.250  
R06  22135281.556 5 118118122.604 5        34.500                                                  
R07  21169109.480 8 113319906.938 8        48.500    21169110.860 7  88137707.517 7        44.000  
R08  23041974.128 6 123388733.080 6        37.500    23041975.248 6  95969015.593 6        38.000  
R12  21894142.696 7 116954572.780 7        46.000    21894144.936 7  90964665.492 7        43.500  
R13  20863092.944 6 111407746.608 6        38.500    20863094.204 6  86650473.804 6        39.500  
R14  23198319.088 6 123660093.196 6        40.000    23198322.208 5  96180072.910 5        35.500  
R21  23423507.624 6 125343938.821 6        39.250    23423511.684 6  97489731.543 6        39.500  
R22  20298532.188 6 108354955.633 6        38.500    20298533.528 5  84276084.623 5        33.250  
R23  21075062.640 7 112737381.871 7        46.500                                                  
> 2021 11 07 00 15  0.0000000  0 19                     
G05  21548976.298 7 113240648.142 7        46.500    21548978.618 7  88239470.454 7        45.500  
G15  24438604.098 5 128425731.584 5        35.000    24438607.858 5 100071998.705 5        35.000  
G16  24656119.076 5 129568779.261 5        34.500    24656120.916 2 100962687.573 2        15.500  
G18  20770496.902 7 109149715.745 7        45.500    20770500.402 8  85051728.913 8        48.500  
G20  23695077.362 6 124518487.139 6        40.500    23695080.042 3  97027393.858 3        21.500  
G23  23288752.346 7 122383224.608 7        43.500    23288754.926 6  95363552.840 6        40.500  
G25  23065397.328 6 121209487.353 6        41.500    23065403.048 6  94448952.108 6        41.000  
G26  22037694.854 7 115808871.206 7        44.500    22037700.034 7  90240678.264 7        44.000  
G29  20674921.964 7 108647459.088 7        47.000    20674925.364 8  84660363.541 8        49.500  
G31  25107054.514 6 131938442.068 6        38.000    25107057.594 5 102809171.950 5        33.500  
R06  22154643.896 5 118221440.105 5        35.250                                                  
R07  21146671.400 7 113199804.526 7        46.000    21146673.860 7  88044294.568 7        43.000  
R08  22994680.948 6 123135473.684 6        37.000    22994681.348 6  95772036.083 6        39.500  
R12  21937628.396 7 117186862.980 7        46.500    21937630.576 7  91145335.628 7        43.500  
R13  20872233.144 6 111456556.002 6        38.500    20872235.264 6  86688436.627 6        40.000  
R14  23165389.228 7 123484549.946 7        42.500    23165390.948 6  96043539.271 6        36.000  
R21  23456255.704 6 125519175.216 6        40.500    23456258.124 6  97626026.444 6        38.500  
R22  20314194.408 6 108438558.691 6        37.500    20314194.568 5  84341109.228 5        32.500  
R23  21052411.980 7 112616214.821 7        47.000                                                  
> 2021 11 07 00 16  0.0000000  0 19                     
G05  21568149.678 7 113341406.702 7        47.000    21568153.098 7  88317983.620 7        45.500  
G15  24404168.098 6 128244765.654 6        36.250    24404171.958 6  99930986.400 6        36.500  
G16  24617975.396 5 129368335.733 5        34.500    24617976.976 2 100806497.862 2        15.500  
G18  20754779.702 7 109067123.222 7        46.000    20754783.302 8  84987371.107 8        49.000  
G20  23730074.502 6 124702399.063 6        40.500    23730077.382 3  97170701.881 3        22.000  
G23  23247397.206 7 122165902.705 7        43.500    23247400.626 6  95194211.088 6        41.250  
G25  23106795.646 6 121427041.008 6        39.500    23106802.326 6  94618474.416 6        41.500  
G26  22021809.834 7 115725393.483 7        44.000    22021814.994 7  90175630.715 7        44.750  
G29  20685521.484 7 108703158.189 7        47.000    20685524.704 8  84703765.432 8        49.000  
G31  25136853.854 6 132095040.378 6        37.750    25136857.414 5 102931196.538 5        35.000  
R06  22174552.196 5 118327667.637 5        35.500                                                  
R07  21124752.900 8 113082464.908 8        48.000    21124755.080 7  87953030.477 7        45.000  
R08  22947483.208 6 122882731.021 6        36.500    22947483.768 6  95575458.525 6        39.500  
R12  21981349.856 7 117420422.514 7        46.000    21981353.196 7  91326993.006 7        43.000  
R13  20881973.664 6 111508570.292 6        39.000    20881976.444 6  86728892.140 6        41.500  
R14  23132870.888 7 123311218.980 7        42.000    23132875.428 6  95908726.300 6        36.250  
R21  23489034.624 6 125694582.777 6        41.500    23489035.584 5  97762454.520 5        35.250  
R22  20330031.088 6 108523093.290 6        37.500    20330031.208 5  84406858.359 5        32.250  
R23  21029909.460 7 112495841.711 7        46.500                                                  
> 2021 11 07 00 17  0.0000000  0 19                     
G05  21587739.996 7 113444354.095 7        47.500    21587743.476 7  88398202.365 7        46.000  
G15  24369815.958 5 128064245.298 5        35.750    24369820.438 6  99790321.223 6        36.750  
G16  24580017.958 5 129168865.838 5        34.500    24580018.958 2 100651066.771 2        15.500  
G18  20739323.922 7 108985902.808 7        45.500    20739327.502 8  84924082.487 8        49.000  
G20  23765265.582 6 124887331.139 6        39.750    23765269.262 3  97314804.759 3        21.000  
G23  23206180.066 7 121949308.171 7        42.500    23206184.406 6  95025436.146 6        41.500  
G25  23148328.386 6 121645294.495 6        41.250    23148334.926 6  94788541.971 6        41.750  
G26  22006328.094 7 115644040.153 7        44.000    22006333.674 7  90112238.495 7        43.500  
G29  20696392.422 7 108760287.970 7        47.500    20696395.942 8  84748282.147 8        49.000  
G31  25166747.074 6 132252132.501 6        36.000    25166751.014 5 103053605.990 5        34.500  
R06  22195001.812 5 118436787.716 5        35.250                                                  
R07  21103354.280 8 112967913.904 8        48.500    21103355.380 7  87863935.289 7        43.500  
R08  22900386.528 6 122630540.460 6        39.000    22900388.268 6  95379310.359 6        39.750  
R12  22025304.636 7 117655216.022 7        46.500    22025306.896 7  91509610.156 7        43.500  
R13  20892313.784 6 111563777.943 6        39.000    20892314.584 6  86771831.402 6        40.500  
R14  23100775.968 7 123140129.338 7        42.000    23100779.028 6  95775656.532 6        37.000  
R21  23521845.644 6 125870160.258 6        40.500    23521847.664 6  97899014.793 6        37.500  
R22  20346039.888 6 108608556.261 6        36.750    20346041.268 5  84473329.578 5        33.250  
R23  21007555.120 7 112376264.885 7        46.500                                                  
> 2021 11 07 00 18  0.0000000  0 20                     
G05  21607742.876 7 113549472.887 7        45.500    21607746.536 7  88480113.119 7        45.500  
G13  25020904.094 6 131485738.246 6        37.500    25020909.054 2 102456420.172 2        17.250  
G15  24335553.818 6 127884195.171 6        38.750    24335558.278 6  99650022.490 6        36.000  
G16  24542249.138 5 128970390.161 5        32.500                                                  
G18  20724129.562 7 108906053.705 7        46.000    20724132.422 8  84861862.442 8        49.500  
G20  23800647.562 6 125073262.702 6        39.500    23800651.202 3  97459686.517 3        21.500  
G23  23165105.526 7 121733460.542 7        42.500    23165110.506 7  94857243.209 7        43.250  
G25  23189989.606 6 121864226.117 6        41.500    23189996.186 6  94959138.022 6        41.250  
G26  21991253.034 7 115564822.088 7        43.000    21991258.314 7  90050510.135 7        44.500  
G29  20707536.542 7 108818850.435 7        47.250    20707539.462 8  84793915.241 8        48.500  
G31  25196730.612 6 132409694.781 6        38.500    25196733.452 5 103176381.762 5        35.000  
R06  22215987.792 5 118548780.802 5        35.500                                                  
R07  21082480.060 8 112856175.453 8        48.250    21082480.820 7  87777027.586 7        43.000  
R08  22853402.088 6 122378935.908 6        38.500    22853402.608 6  95183617.961 6        39.750  
R12  22069482.956 7 117891207.040 7        46.500    22069485.116 7  91693158.709 7        43.250  
R13  20903247.164 6 111622164.151 6        39.000    20903248.024 6  86817242.886 6        39.250  
R14  23069104.568 7 122971308.175 7        42.000    23069107.948 6  95644351.231 6        36.500  
R21  23554687.704 6 126045905.408 6        40.500    23554690.244 6  98035705.376 6        37.500  
R22  20362224.408 6 108694943.469 6        37.750    20362225.008 5  84540519.626 5        33.500  
R23  20985350.524 7 112257485.146 7        46.500                                                  
> 2021 11 07 00 19  0.0000000  0 20                     
G05  21628156.396 7 113656746.877 7        45.000    21628160.156 7  88563703.238 7        45.000  
G13  24993096.674 6 131339605.497 6        38.000    24993098.854 2 102342550.588 2        14.750  
G15  24301385.818 6 127704641.915 6        39.500    24301390.098 5  99510110.798 5        34.750  
G16  24504671.498 5 128772930.669 5        31.000                                                  
G18  20709195.582 7 108827575.728 7        46.500    20709198.942 8  84800710.794 8        49.000  
G20  23836215.142 6 125260173.838 6        37.500    23836218.682 3  97605331.541 3        20.000  
G23  23124177.146 7 121518379.896 7        42.500    23124182.146 7  94689647.919 7        43.000  
G25  23231776.206 7 122083814.868 7        43.000    23231782.246 6  95130246.130 6        40.500  
G26  21976587.034 7 115487750.467 7        44.750    21976593.074 7  89990454.342 7        45.500  
G29  20718953.902 7 108878847.643 7        47.500    20718956.162 8  84840666.305 8        48.250  
G31  25226798.032 6 132567702.904 6        36.500    25226801.152 5 103299505.024 5        33.500  
R06  22237510.232 5 118663627.345 5        35.500                                                  
R07  21062136.660 7 112747273.365 7        47.500    21062138.440 7  87692325.997 7        45.000  
R08  22806533.648 6 122127952.651 6        40.500    22806532.848 6  94988408.792 6        38.000  
R12  22113879.416 7 118128359.702 7        45.500    22113880.556 7  91877610.723 7        43.000  
R13  20914772.444 6 111683715.544 6        39.000    20914774.204 6  86865116.163 6        39.500  
R14  23037865.568 7 122804783.142 7        44.000    23037869.488 6  95514831.744 6        37.750  
R21  23587562.524 6 126221817.285 6        41.000    23587562.524 6  98172525.746 6        38.000  
R22  20378578.848 6 108782250.444 6        37.000    20378580.528 5  84608425.057 5        33.500  
R23  20963295.504 7 112139504.433 7        47.500                                                  
> 2021 11 07 00 20  0.0000000  0 21                     
G05  21648977.136 7 113766159.180 7        45.500    21648980.136 7  88648959.599 7        44.000  
G13  24965457.734 6 131194365.839 6        38.500    24965459.194 2 102229376.769 2        16.750  
G15  24267316.560 6 127525611.312 6        38.000    24267321.720 5  99370606.520 5        34.000  
G16  24467293.798 4 128576509.235 4        29.750                                                  
G18  20694522.562 7 108750468.537 7        46.000    20694526.142 8  84740627.299 8        49.500  
G20  23871966.202 6 125448045.284 6        38.750    23871969.902 3  97751724.912 3        20.500  
G23  23083398.608 6 121304086.437 6        40.500    23083403.268 7  94522666.050 7        44.000  
G25  23273683.506 7 122304039.791 7        42.250    23273690.106 6  95301849.964 6        41.000  
G26  21962330.974 7 115412836.207 7        44.000    21962337.334 7  89932079.609 7        44.500  
G29  20730644.382 7 108940281.291 7        47.250    20730646.942 8  84888536.670 8        48.250  
G31  25256945.592 5 132726133.297 5        35.000    25256949.672 5 103422957.219 5        34.000  
R06  22259564.352 6 118781307.740 6        38.000                                                  
R07  21042326.340 8 112641231.608 8        48.000    21042327.660 7  87609849.159 7        44.000  
R08  22759785.532 6 121877625.298 6        39.000    22759785.932 6  94793709.742 6        38.000  
R12  22158484.616 7 118366637.813 7        45.000    22158486.516 7  92062938.124 7        42.500  
R13  20926888.164 6 111748417.090 6        38.000    20926891.484 6  86915439.571 6        39.500  
R14  23007062.268 7 122640581.543 7        43.500    23007065.288 6  95387119.385 6        37.000  
R21  23620463.984 6 126397894.587 6        41.000    23620468.464 6  98309474.758 6        38.500  
R22  20395108.264 6 108870473.488 6        38.000    20395107.464 5  84677042.988 5        33.500  
R23  20941390.864 7 112022324.589 7        47.500                                                  
R24  24133837.140 6 129054467.045 6        40.750    24133839.420 6 100375697.356 6        38.000  
> 2021 11 07 00 21  0.0000000  0 21                     
G05  21670201.496 7 113877692.518 7        46.000    21670203.516 7  88735868.691 7        44.000  
G13  24937993.414 6 131050044.230 6        37.500    24937997.254 2 102116918.342 2        16.000  
G15  24233353.320 6 127347129.290 6        38.500    24233356.660 5  99231529.639 5        32.500  
G16  24430118.698 5 128381147.643 5        31.500                                                  
G18  20680110.084 7 108674731.455 7        47.250    20680113.384 8  84681611.399 8        49.500  
G20  23907896.162 6 125636857.009 6        38.750    23907899.122 3  97898850.905 3        20.500  
G23  23042773.488 6 121090599.843 6        41.500    23042778.028 7  94356312.903 7        45.000  
G25  23315708.506 7 122524879.593 7        42.000    23315714.586 6  95473932.902 6        41.750  
G26  21948488.194 7 115340089.672 7        45.000    21948494.274 7  89875394.011 7        44.500  
G29  20742608.522 7 109003152.790 7        47.500    20742611.502 8  84937527.451 8        48.500  
G31  25287170.632 6 132884962.924 6        38.000    25287173.632 5 103546720.579 5        34.500  
R06  22282144.992 6 118901801.124 6        37.000                                                  
R07  21023055.440 8 112538073.006 8        49.000    21023056.740 7  87529614.706 7        43.000  
R08  22713168.452 6 121627989.361 6        38.500    22713169.072 6  94599548.484 6        40.000  
R12  22203293.892 7 118606004.830 7        43.500    22203296.312 7  92249112.475 7        42.000  
R13  20939593.664 6 111816253.322 6        39.000    20939595.764 6  86968201.041 6        39.500  
R14  22976699.068 7 122478730.427 7        43.500    22976701.408 6  95261235.188 6        36.250  
R21  23653401.884 6 126574135.478 6        40.750    23653403.584 6  98446550.948 6        39.000  
R22  20411803.324 6 108959609.149 6        37.500    20411805.904 5  84746370.700 5        34.000  
R23  20919634.864 7 111905946.734 7        47.500                                                  
R24  24100210.560 6 128874652.318 6        39.500    24100213.580 6 100235841.485 6        38.000  
> 2021 11 07 00 22  0.0000000  0 21                     
G05  21691826.196 7 113991330.668 7        46.250    21691827.916 7  88824417.879 7        44.000  
G13  24910710.054 6 130906666.360 6        38.000    24910715.194 2 102005195.392 2        16.000  
G15  24199498.580 6 127169222.566 6        37.750    24199502.080 5  99092900.965 5        34.000  
G16  24393148.358 4 128186868.170 4        29.750                                                  
G18  20665958.364 8 108600364.500 8        48.000    20665961.644 8  84623663.164 8        49.500  
G20  23944000.462 6 125826589.321 6        38.000    23944004.362 3  98046694.244 3        21.000  
G23  23002306.268 7 120877940.718 7        43.500    23002309.708 7  94190604.510 7        43.000  
G25  23357846.126 6 122746313.876 6        40.000    23357852.266 7  95646479.095 7        42.000  
G26  21935059.414 7 115269521.708 7        44.000    21935066.514 7  89820405.987 7        45.500  
G29  20754846.482 7 109067464.899 7        46.500    20754850.042 8  84987640.770 8        48.750  
G31  25317466.072 6 133044168.223 6        37.750    25317468.692 5 103670776.709 5        32.000  
R06  22305247.592 6 119025087.233 6        38.500                                                  
R07  21004328.360 8 112437820.503 8        49.250    21004329.720 7  87451640.555 7        44.000  
R08  22666686.492 6 121379080.573 6        37.500    22666686.852 6  94405952.846 6        39.000  
R12  22248301.272 7 118846425.689 7        43.000    22248304.192 7  92436106.446 7        42.500  
R13  20952881.884 6 111887208.533 6        39.500    20952883.164 6  87023388.367 6        40.000  
R14  22946781.308 7 122319257.003 7        43.250    22946784.528 5  95137200.307 5        35.000  
R21  23686364.144 6 126750539.794 6        40.000    23686366.784 5  98583754.330 5        35.500  
R22  20428673.244 6 109049654.131 6        38.500    20428673.804 5  84816405.697 5        33.000  
R23  20898028.844 7 111790373.766 7        47.500                                                  
R24  24066606.560 6 128694961.979 6        38.250    24066610.320 6 100096082.350 6        38.500  
> 2021 11 07 00 23  0.0000000  0 21                     
G05  21713847.756 7 114107054.713 7        47.000    21713850.076 7  88914592.473 7        45.500  
G13  24883610.494 6 130764257.272 6        38.000    24883614.714 2 101894227.328 2        16.750  
G15  24165758.680 5 126991916.944 5        35.500    24165761.860 5  98954740.844 5        35.000  
G16  24356388.818 5 127993692.459 5        31.500                                                  
G18  20652068.024 7 108527366.803 7        47.500    20652070.744 8  84566781.843 8        49.500  
G20  23980277.122 6 126017222.947 6        39.000    23980280.302 3  98195239.969 3        20.250  
G23  22961999.688 7 120666128.725 7        44.000    22962003.008 7  94025556.239 7        42.750  
G25  23400091.664 6 122968321.342 6        38.250    23400098.744 7  95819471.847 7        42.500  
G26  21922047.394 7 115201141.941 7        43.000    21922054.314 7  89767123.038 7        45.000  
G29  20767358.942 7 109133218.252 7        47.500    20767362.562 8  85038877.141 8        49.000  
G31  25347829.932 6 133203725.540 6        36.500    25347832.372 5 103795107.107 5        32.500  
R06  22328871.092 6 119151144.613 6        37.000                                                  
R07  20986146.060 8 112340495.528 8        48.000    20986147.760 7  87375943.362 7        44.000  
R08  22620346.092 6 121130933.543 6        38.000    22620347.072 6  94212949.649 6        39.000  
R12  22293499.592 7 119087864.106 7        45.000    22293502.612 7  92623891.854 7        43.250  
R13  20966750.264 6 111961265.947 6        40.500    20966752.664 6  87080988.524 6        40.500  
R14  22917315.668 7 122162187.236 7        43.000    22917318.908 5  95015034.954 5        35.250  
R21  23719362.504 6 126927105.840 6        39.750    23719362.404 6  98721083.369 6        36.000  
R22  20445710.084 6 109140604.834 6        37.500    20445712.264 5  84887145.109 5        33.500  
R23  20876575.304 8 111675607.375 8        48.000                                                  
R24  24033026.920 6 128515396.186 6        38.250    24033030.760 6  99956420.105 6        36.500  
> 2021 11 07 00 24  0.0000000  0 21                     
G05  21736263.356 8 114224847.809 8        48.000    21736266.116 7  89006379.306 7        46.250  
G13  24856699.956 6 130622841.464 6        38.250    24856702.116 2 101784033.161 2        15.500  
G15  24132137.260 6 126815238.886 6        36.000    24132140.780 5  98817069.635 5        35.500  
G16  24319843.318 5 127801641.517 5        33.250                                                  
G18  20638437.384 8 108455737.548 8        48.000    20638440.304 8  84510966.864 8        49.500  
G20  24016721.700 6 126208738.125 6        38.000    24016724.800 3  98344472.552 3        20.500  
G23  22921858.368 7 120455183.716 7        45.000    22921861.828 7  93861183.507 7        43.250  
G25  23442443.644 6 123190880.857 6        39.500    23442450.344 7  95992894.803 7        42.500  
G26  21909453.454 7 115134960.056 7        44.250    21909460.714 7  89715552.717 7        45.500  
G29  20780145.982 7 109200414.601 7        47.000    20780149.702 8  85091237.924 8        49.000  
G31  25378254.272 6 133363610.817 6        38.500    25378258.372 5 103919693.024 5        34.500  
R06  22353010.092 6 119279951.113 6        37.000                                                  
R07  20968515.824 7 112246119.700 7        47.500    20968518.104 7  87302540.005 7        44.500  
R08  22574154.872 6 120883584.097 6        38.500    22574156.192 6  94020566.769 6        40.000  
R12  22338880.912 7 119330283.816 7        46.000    22338884.092 7  92812440.524 7        42.500  
R13  20981194.584 6 112038407.136 6        38.500    20981196.924 6  87140987.206 6        39.250  
R14  22888305.948 7 122007547.492 7        43.000    22888308.188 5  94894759.609 5        35.500  
R21  23752388.144 6 127103832.539 6        41.000    23752389.144 6  98858537.498 6        36.500  
R22  20462917.024 6 109232457.546 6        36.250    20462919.384 5  84958586.095 5        33.000  
R23  20855271.344 7 111561649.312 7        47.500                                                  
R24  23999471.040 6 128335956.124 6        38.500    23999474.060 6  99816855.599 6        37.500  
> 2021 11 07 00 25  0.0000000  0 21                     
G05  21759068.956 7 114344693.076 7        47.000    21759071.956 7  89099765.241 7        46.000  
G13  24829983.756 6 130482445.183 6        39.000    24829984.676 2 101674633.476 2        17.250  
G15  24098642.460 6 126639216.142 6        37.000    24098645.340 6  98679909.096 6        36.500  
G16  24283516.118 5 127610740.307 5        34.000    24283519.438 2  99436939.135 2        17.250  
G18  20625067.024 8 108385477.524 8        48.500    20625070.404 8  84456218.803 8        50.500  
G20  24053329.700 6 126401117.332 6        38.500    24053333.420 3  98494378.399 3        20.500  
G23  22881885.628 7 120245127.161 7        45.000    22881889.628 7  93697503.082 7        42.500  
G25  23484896.864 6 123413973.088 6        41.000    23484903.124 6  96166732.872 6        40.500  
G26  21897279.494 7 115070986.964 7        43.750    21897287.154 7  89665703.534 7        45.500  
G29  20793207.982 7 109269057.088 7        46.500    20793211.722 8  85144725.554 8        48.500  
G31  25408737.832 6 133523803.079 6        38.000    25408741.532 5 104044518.170 5        34.000  
R06  22377658.352 6 119411486.428 6        36.500                                                  
R07  20951440.664 7 112154715.152 7        47.500    20951443.424 7  87231447.613 7        45.000  
R08  22528119.792 6 120637069.014 6        39.000    22528121.172 6  93828832.880 6        40.500  
R12  22384440.032 7 119573650.673 7        45.000    22384442.212 7  93001725.841 7        42.000  
R13  20996216.140 6 112118617.325 6        38.000    20996217.280 6  87203372.894 6        39.000  
R14  22859757.428 7 121855364.865 7        43.000    22859759.648 6  94776395.369 6        36.000  
R21  23785441.884 6 127280720.417 6        39.500    23785445.084 6  98996116.904 6        37.000  
R22  20480294.304 6 109325211.072 6        37.000    20480295.104 5  85030727.709 5        32.500  
R23  20834119.864 7 111448503.453 7        46.250                                                  
R24  23965940.544 6 128156643.557 6        41.500    23965942.724 6  99677390.355 6        38.000  
> 2021 11 07 00 26  0.0000000  0 21                     
G05  21782261.156 7 114466570.949 7        46.750    21782264.416 7  89194735.018 7        45.250  
G13  24803466.396 6 130343092.099 6        39.500    24803468.576 2 101566046.687 2        17.250  
G15  24065274.500 5 126463874.106 5        34.500    24065279.680 6  98543279.042 6        38.000  
G16  24247411.260 5 127421007.903 5        34.500    24247415.060 2  99289095.661 2        15.500  
G18  20611957.044 7 108316584.277 7        46.500    20611960.304 8  84402535.766 8        50.000  
G20  24090098.800 6 126594339.419 6        38.500    24090101.960 3  98644941.033 3        20.500  
