     3.02           OBSERVATION DATA    G                   RINEX VERSION / TYPE
HIVE                geosystems.aero     18-JAN-22 05:38     PGM / RUN BY / DATE 
SRGU                                                        MARKER NAME         
774                                                         MARKER NUMBER       
                                                            MARKER TYPE         
geosystems.aero     Industrial Geodetic Systems             OBSERVER / AGENCY   
201130018           ASHTECH PF500       S765G124            REC # / TYPE / VERS 
                    JNSMARANT_GGD   NONE                    ANT # / TYPE        
   877238.6370  2946245.4312  5569758.2290                  APPROX POSITION XYZ 
        0.0000        0.0000        0.0000                  ANTENNA: DELTA H/E/N
G  6   C1C L1C S1C C2D L2D S2D                              SYS / # / OBS TYPES 
    60.000                                                  INTERVAL            
  2021    11    07    00    00   00.0000000     GPS         TIME OF FIRST OBS   
  2021    11    07    23    59   00.0000000     GPS         TIME OF LAST OBS    
 C1C    0.000 C1P    0.000 C2C    0.000 C2P    0.000        GLONASS COD/PHS/BIS 
    18                                                      LEAP SECONDS        
    29                                                      # OF SATELLITES     
   G01   259   259   259   259   259   259                  PRN / # OF OBS      
   G02   203   203   203   203   203   203                  PRN / # OF OBS      
   G04   248   248   248   248   248   248                  PRN / # OF OBS      
   G05   183   183   183   183   183   183                  PRN / # OF OBS      
   G06   181   181   181   181   181   181                  PRN / # OF OBS      
   G07   206   206   206   206   206   206                  PRN / # OF OBS      
   G08   223   223   223   223   223   223                  PRN / # OF OBS      
   G09   178   178   178   178   178   178                  PRN / # OF OBS      
   G10   335   335   335   335   335   335                  PRN / # OF OBS      
   G12   183   183   183   183   183   183                  PRN / # OF OBS      
   G13   248   248   248   247   247   247                  PRN / # OF OBS      
   G14   112   112   112   107   107   107                  PRN / # OF OBS      
   G15   274   274   274   274   274   274                  PRN / # OF OBS      
   G16   328   328   328   328   328   328                  PRN / # OF OBS      
   G17   159   159   159   159   159   159                  PRN / # OF OBS      
   G18   292   292   292   292   292   292                  PRN / # OF OBS      
   G19   125   125   125   125   125   125                  PRN / # OF OBS      
   G20   161   161   161   161   161   161                  PRN / # OF OBS      
   G21   288   288   288   286   286   286                  PRN / # OF OBS      
   G22   316   316   316   316   316   316                  PRN / # OF OBS      
   G23   355   355   355   354   354   354                  PRN / # OF OBS      
   G24   237   237   237   237   237   237                  PRN / # OF OBS      
   G25   209   209   209   209   209   209                  PRN / # OF OBS      
   G26   333   333   333   333   333   333                  PRN / # OF OBS      
   G27   284   284   284   284   284   284                  PRN / # OF OBS      
   G29   297   297   297   297   297   297                  PRN / # OF OBS      
   G30   143   143   143   143   143   143                  PRN / # OF OBS      
   G31   317   317   317   317   317   317                  PRN / # OF OBS      
   G32   351   351   351   351   351   351                  PRN / # OF OBS      
                                                            END OF HEADER       
> 2021 11 07 00 00  0.0000000  0 10                     
G02  23470382.284 7 123337696.332 7        44.750    23470378.804 5  96107297.745 5        33.500  
G05  20540920.124 8 107943309.945 8        48.250    20540918.604 8  84111664.266 8        52.500  
G09  24750257.996 6 130063483.192 6        40.500    24750258.856 4 101348167.871 4        28.000  
G13  24756283.076 6 130095147.836 6        40.250    24756282.156 3 101372845.336 3        21.750  
G16  24436973.598 7 128417176.597 7        44.000    24436972.338 4 100065334.340 4        26.750  
G18  22655259.950 7 119054204.787 7        46.250    22655259.130 5  92769507.468 5        34.250  
G20  21195206.100 8 111381577.547 8        48.250    21195204.440 6  86790843.152 6        39.250  
G25  24554239.898 6 129033413.032 6        41.500    24554242.558 6 100545516.282 6        41.000  
G26  22682374.510 7 119196698.484 7        43.500    22682376.630 7  92880549.148 7        43.250  
G29  20520053.004 8 107833619.364 8        49.250    20520051.784 9  84026201.150 9        54.000  
> 2021 11 07 00 01  0.0000000  0 10                     
G02  23502337.884 7 123505624.175 7        44.750    23502334.72415  96238143.58115        32.5001 
G05  20534180.124 8 107907891.279 8        48.500    20534178.58418  84084033.31318        52.5001 
G09  24779252.316 6 130215849.732 6        38.000    24779253.71613 101466895.24613        19.2501 
G13  24714441.436 6 129875268.563 6        41.000    24714440.03614 101201507.87114        24.0001 
G16  24402951.578 7 128238389.869 7        42.250    24402950.09813  99926009.94813        23.5001 
G18  22619192.230 7 118864667.749 7        44.250    22619191.67015  92621815.32815        32.7501 
G20  21214346.300 8 111482159.609 8        48.500    21214344.86016  86869200.78216        39.5001 
G25  24598392.136 6 129265434.206 6        41.750    24598394.71616 100726304.93216        41.5001 
G26  22676816.370 6 119167490.275 6        41.250    22676817.89016  92857768.49616        41.2501 
G29  20527770.624 8 107874175.600 8        49.500    20527769.12419  84057788.41219        54.2501 
> 2021 11 07 00 02  0.0000000  0 10                     
G02  23534421.304 7 123674223.659 7        44.500    23534417.924 5  96369519.759 5        32.500  
G05  20527911.944 8 107874951.911 8        48.500    20527910.444 8  84058366.281 8        52.500  
G09  24808568.476 7 130369907.628 7        42.000    24808569.796 4 101586940.215 4        29.250  
G13  24672687.796 6 129655851.759 6        41.500    24672686.656 4 101030533.742 4        25.750  
G16  24369231.898 6 128061191.708 6        39.750    24369230.938 3  99787933.679 3        23.500  
G18  22583294.850 7 118676026.152 7        44.000    22583294.390 5  92474821.928 5        33.000  
G20  21233857.820 8 111584693.354 8        48.500    21233856.460 6  86949097.205 6        39.250  
G25  24642599.016 6 129497742.629 6        40.500    24642601.676 6 100907324.419 6        39.750  
G26  22671721.210 6 119140715.251 6        41.250    22671722.850 7  92836904.823 7        42.250  
G29  20535920.924 8 107917005.773 8        49.500    20535919.504 9  84091162.573 9        54.500  
> 2021 11 07 00 03  0.0000000  0 10                     
G02  23566631.464 7 123843488.919 7        46.750    23566628.044 5  96501414.744 5        34.250  
G05  20522116.364 8 107844495.982 8        48.500    20522114.884 8  84034634.390 8        52.750  
G09  24838203.196 6 130525639.070 6        38.000    24838204.596 3 101708289.415 3        21.500  
G13  24631027.196 6 129436923.920 6        41.250    24631026.196 4 100859940.649 4        25.750  
G16  24335818.958 6 127885605.914 6        41.250    24335817.798 4  99651113.736 4        25.500  
G18  22547570.590 7 118488294.079 7        46.500    22547570.070 5  92328537.242 5        34.750  
G20  21253738.500 8 111689167.101 8        48.000    21253737.160 6  87030505.321 6        38.750  
G25  24686856.696 5 129730318.055 5        35.500    24686859.376 5 101088551.938 5        33.500  
G26  22667090.130 7 119116378.754 7        43.750    22667092.090 7  92817941.333 7        44.750  
G29  20544504.004 8 107962110.216 8        49.500    20544502.644 9  84126308.881 9        54.500  
> 2021 11 07 00 04  0.0000000  0  9                     
G02  23598965.304 7 124013404.269 7        43.750    23598961.904 5  96633816.263 5        32.750  
G05  20516792.344 8 107816518.018 8        49.250    20516790.884 8  84012833.377 8        53.000  
G09  24868151.136 6 130683016.518 6        38.000    24868152.416 4 101830921.200 4        25.500  
G13  24589463.256 6 129218504.109 6        40.750    24589462.396 4 100689743.478 4        24.750  
G16  24302715.898 6 127711648.622 6        41.750    24302714.678 4  99515562.722 4        26.000  
G18  22512020.430 7 118301476.838 7        47.000    22512019.890 5  92182965.406 5        35.750  
G20  21273984.460 8 111795560.342 8        48.000    21273983.120 6  87113409.131 6        38.500  
G26  22662922.390 7 119094477.027 7        45.000    22662924.330 7  92800875.089 7        45.250  
G29  20553518.204 8 108009480.038 8        50.000    20553516.844 9  84163220.427 9        54.500  
> 2021 11 07 00 05  0.0000000  0 10                     
G02  23631423.344 7 124183972.155 7        45.750    23631419.924 5  96766726.257 5        32.750  
G05  20511941.944 8 107791028.818 8        49.750    20511940.444 8  83992971.651 8        53.250  
G09  24898410.394 6 130842029.915 6        40.500    24898411.674 3 101954827.629 3        23.250  
G13  24548002.778 6 129000628.014 6        38.750    24548002.018 4 100519969.991 4        24.000  
G16  24269928.920 7 127539352.226 7        42.000    24269927.540 4  99381305.848 4        24.250  
G18  22476648.592 7 118115596.601 7        47.750    22476648.012 6  92038123.673 6        36.000  
G20  21294594.878 8 111903868.940 8        48.000    21294593.558 6  87197805.439 6        38.500  
G25  24775506.016 6 130196171.400 6        38.250    24775508.656 5 101451554.178 5        30.500  
G26  22659220.410 7 119075022.807 7        45.250    22659222.350 7  92785715.973 7        45.500  
G29  20562965.064 8 108059123.591 8        49.250    20562963.724 9  84201903.717 9        54.500  
> 2021 11 07 00 06  0.0000000  0 10                     
G02  23664003.084 7 124355179.610 7        45.000    23663999.564 5  96900134.626 5        32.500  
G05  20507564.464 8 107768024.837 8        50.000    20507562.944 8  83975046.461 8        53.750  
G09  24928976.114 6 131002653.774 6        38.000    24928977.354 3 102079988.858 3        22.500  
G13  24506649.578 6 128783315.759 6        38.000    24506648.798 3 100350635.927 3        21.250  
G16  24237461.360 6 127368734.638 6        41.250    24237459.980 3  99248357.227 3        23.000  
G18  22441456.452 7 117930660.557 7        47.500    22441455.752 5  91894017.672 5        35.000  
G20  21315566.278 8 112014074.352 8        48.250    21315564.918 6  87283679.786 6        38.250  
G25  24819890.036 7 130429410.282 7        42.250    24819891.996 5 101633298.872 5        32.250  
G26  22655983.610 7 119058013.390 7        44.000    22655985.650 7  92772461.873 7        44.500  
G29  20572843.124 8 108111033.157 8        49.000    20572841.804 9  84242352.730 9        54.250  
> 2021 11 07 00 07  0.0000000  0 10                     
G02  23696703.002 7 124527018.453 7        46.000    23696699.462 5  97034035.032 5        33.000  
G05  20503659.724 8 107747505.148 8        49.750    20503658.204 8  83959057.101 8        53.750  
G09  24959844.454 6 131164867.746 6        39.000    24959845.734 3 102206389.436 3        23.250  
G13  24465408.458 6 128566592.574 6        39.000    24465407.698 3 100181760.826 3        21.250  
G16  24205317.460 7 127199817.816 7        42.500    24205316.020 4  99116733.940 4        25.750  
G18  22406446.192 7 117746680.465 7        46.750    22406445.432 5  91750656.583 5        34.000  
G20  21336895.798 8 112126161.686 8        48.250    21336894.378 6  87371020.560 6        38.000  
G25  24864307.596 7 130662826.151 7        44.250    24864309.056 5 101815181.447 5        34.750  
G26  22653212.310 7 119043450.349 7        43.500    22653214.410 7  92761114.049 7        43.750  
G29  20583151.804 8 108165205.644 8        49.250    20583150.524 9  84284565.061 9        54.500  
> 2021 11 07 00 08  0.0000000  0 10                     
G02  23729521.502 7 124699480.755 7        44.000    23729518.022 5  97168421.151 5        32.250  
G05  20500227.984 8 107729471.117 8        49.750    20500226.444 8  83945004.605 8        53.750  
G09  24991011.414 6 131328650.961 6        40.500    24991012.634 4 102334012.649 4        25.250  
G13  24424284.378 6 128350484.521 6        41.250    24424283.578 3 100013365.043 3        18.500  
G16  24173501.600 7 127032624.903 7        42.000    24173500.100 4  98986453.824 4        26.750  
G18  22371620.232 7 117563669.023 7        44.000    22371619.472 5  91608050.316 5        33.250  
G20  21358580.878 8 112240117.422 8        48.250    21358579.378 6  87459817.231 6        38.000  
G25  24908754.654 7 130896397.790 7        43.250    24908756.114 6 101997185.370 6        37.750  
G26  22650906.930 7 119031335.719 7        44.000    22650909.070 7  92751674.094 7        44.500  
G29  20593890.724 8 108221639.013 8        49.250    20593889.464 9  84328539.107 9        54.750  
> 2021 11 07 00 09  0.0000000  0 10                     
G02  23762456.082 7 124872552.921 7        43.500    23762452.642 5  97303282.558 5        32.000  
G05  20497267.984 8 107713916.120 8        49.500    20497266.424 8  83932883.822 8        53.750  
G09  25022471.914 6 131493976.786 6        39.000    25022473.194 3 102462837.942 3        22.000  
G13  24383281.118 7 128135011.185 7        42.500    24383280.098 2  99845463.697 2        13.250  
G16  24142016.780 6 126867171.535 6        41.250    24142015.260 4  98857529.136 4        25.500  
G18  22336979.732 7 117381632.245 7        44.750    22336979.012 5  91466203.498 5        33.250  
G20  21380617.578 8 112355920.962 8        48.500    21380615.998 6  87550053.745 6        37.750  
G25  24953226.194 6 131130097.410 6        41.000    24953227.974 6 102179288.925 6        39.000  
G26  22649066.550 7 119021664.428 7        44.250    22649068.690 7  92744138.046 7        45.250  
G29  20605058.004 8 108280323.468 8        49.000    20605056.784 9  84374267.239 9        54.500  
> 2021 11 07 00 10  0.0000000  0 10                     
G02  23795506.942 7 125046236.142 7        44.250    23795503.522 5  97438620.104 5        31.500  
G05  20494781.484 8 107700849.398 8        49.000    20494779.944 8  83922701.955 8        53.500  
G09  25054223.794 6 131660833.774 6        38.500    25054225.094 3 102592856.200 3        23.750  
G13  24342405.438 7 127920208.226 7        42.250    24342404.158 2  99678084.654 2        15.500  
G16  24110868.960 6 126703489.065 6        41.000    24110867.360 4  98729984.338 4        24.500  
G18  22302528.932 7 117200592.290 7        45.500    22302528.212 5  91325133.447 5        34.000  
G20  21403005.058 8 112473567.735 8        48.250    21403003.398 6  87641726.566 6        37.750  
G25  24997719.834 6 131363913.394 6        37.000    24997721.874 6 102361483.107 6        36.750  
G26  22647693.150 7 119014447.209 7        44.000    22647695.310 7  92738514.255 7        45.000  
G29  20616654.864 8 108341265.444 8        49.000    20616653.684 9  84421754.485 9        54.500  
> 2021 11 07 00 11  0.0000000  0  9                     
G02  23828671.642 7 125220517.717 7        43.000    23828668.242 5  97574423.896 5        31.250  
G05  20492767.424 8 107690265.481 8        48.250    20492765.884 8  83914454.750 8        52.750  
G09  25086262.214 6 131829196.542 6        40.500    25086263.554 4 102724047.765 4        24.250  
G13  24301661.438 6 127706097.045 6        40.750    24301660.158 3  99511244.799 3        21.250  
G16  24080061.580 7 126541595.435 7        42.250    24080059.960 4  98603833.633 4        24.750  
G18  22268269.272 7 117020556.590 7        46.500    22268268.532 5  91184845.913 5        35.250  
G20  21425739.558 8 112593038.284 8        48.000    21425737.878 6  87734820.498 6        37.500  
G26  22646785.910 7 119009679.689 7        44.500    22646788.130 7  92734799.302 7        45.000  
G29  20628679.784 8 108404456.854 8        49.250    20628678.644 9  84470994.524 9        54.750  
> 2021 11 07 00 12  0.0000000  0  9                     
G02  23861948.762 7 125395390.007 7        43.000    23861945.382 5  97710687.999 5        31.250  
G05  20491225.384 7 107682162.222 7        47.250    20491223.884 8  83908140.522 8        52.250  
G09  25118583.074 6 131999043.337 6        38.250    25118584.474 3 102856395.524 3        23.250  
G13  24261053.860 6 127492702.751 6        39.250    24261052.700 3  99344963.598 3        22.500  
G16  24049598.620 6 126381511.896 6        41.750    24049596.980 4  98479093.201 4        26.250  
G18  22234202.952 7 116841537.002 7        46.750    22234202.212 5  91045350.158 5        35.750  
G20  21448818.178 7 112714317.219 7        47.750    21448816.478 6  87829323.582 6        37.250  
G26  22646344.750 7 119007361.435 7        45.500    22646347.030 7  92732992.887 7        45.750  
G29  20641131.904 8 108469893.003 8        50.500    20641130.764 9  84521983.733 9        55.000  
> 2021 11 07 00 13  0.0000000  0 10                     
G02  23895336.602 7 125570844.209 7        44.250    23895333.262 5  97847405.493 5        31.250  
G05  20490154.944 8 107676537.042 8        49.000    20490153.444 8  83903757.247 8        53.000  
G09  25151182.214 6 132170352.223 6        40.000    25151183.694 3 102989882.693 3        22.250  
G13  24220587.340 5 127280049.790 5        33.250    24220586.240 3  99179260.095 3        18.750  
G16  24019484.040 6 126223259.017 6        41.500    24019482.420 4  98355779.364 4        25.000  
G18  22200332.132 7 116663544.597 7        46.750    22200331.392 6  90906654.782 6        36.000  
G20  21472237.978 7 112837389.014 7        47.750    21472236.218 6  87925223.658 6        37.000  
G25  25131287.454 6 132065792.228 6        40.750    25131290.154 6 102908443.394 6        37.500  
G26  22646369.410 7 119007490.924 7        46.000    22646371.690 7  92733093.813 7        46.250  
G29  20654010.084 8 108537568.195 8        50.000    20654008.924 9  84574717.654 9        54.750  
> 2021 11 07 00 14  0.0000000  0  9                     
G02  23928832.562 7 125746866.441 7        42.750    23928829.222 5  97984565.653 5        30.750  
G05  20489554.524 8 107673381.916 8        48.250    20489553.044 8  83901298.714 8        52.500  
G09  25184054.632 6 132343096.902 6        38.750    25184056.192 3 103124488.701 3        23.500  
G16  23989720.840 7 126066852.614 7        42.750    23989719.220 4  98233904.279 4        26.000  
G18  22166658.094 7 116486586.419 7        46.000    22166657.354 5  90768765.301 5        35.250  
G20  21495994.998 7 112962232.939 7        47.250    21495993.198 6  88022504.624 6        36.750  
G25  25175823.654 7 132299832.032 7        42.000    25175826.694 6 103090812.073 6        36.750  
G26  22646858.710 7 119010062.205 7        44.750    22646860.990 7  92735097.441 7        45.000  
G29  20667312.484 8 108607472.656 8        49.750    20667311.324 9  84629188.649 9        54.750  
> 2021 11 07 00 15  0.0000000  0 10                     
G02  23962437.402 7 125923460.973 7        43.750    23962434.082 4  98122171.767 4        29.750  
G05  20489426.224 8 107672707.593 8        50.500    20489424.704 9  83900773.244 9        54.000  
G09  25217198.512 6 132517268.058 6        37.750    25217200.192 3 103260206.399 3        22.000  
G13  24140096.620 6 126857068.656 6        39.250    24140095.540 4  98849664.756 4        26.250  
G16  23960315.502 7 125912326.646 7        42.500    23960313.842 4  98113494.481 4        25.250  
G18  22133185.474 7 116310686.785 7        45.250    22133184.734 5  90631700.661 5        34.000  
G20  21520088.638 7 113088845.951 7        47.500    21520086.838 6  88121164.124 6        36.500  
G25  25220361.972 7 132533882.384 7        42.750    25220365.052 6 103273188.964 6        38.000  
G26  22647814.710 7 119015086.214 7        43.250    22647817.010 7  92739012.246 7        43.250  
G29  20681040.544 8 108679614.093 8        49.000    20681039.404 9  84685402.754 9        54.250  
> 2021 11 07 00 16  0.0000000  0 11                     
G02  23996148.260 6 126100612.651 6        40.500    23996144.960 4  98260212.008 4        28.000  
G05  20489768.024 8 107674503.543 8        50.000    20489766.464 8  83902172.668 8        53.500  
G07  25574692.330 6 134395915.542 6        39.500    25574690.950 3 104724095.667 3        22.250  
G09  25250608.152 6 132692836.026 6        38.750    25250609.952 3 103397012.395 3        21.750  
G13  24100083.140 7 126646796.749 7        44.500    24100082.060 5  98685816.580 5        30.250  
G16  23931270.402 7 125759693.951 7        42.500    23931268.742 4  97994559.965 4        25.000  
G18  22099915.154 7 116135850.126 7        45.750    22099914.434 5  90495464.344 5        34.500  
G20  21544514.558 7 113217205.016 7        47.500    21544512.758 6  88221184.171 6        36.500  
G25  25264896.832 6 132767914.479 6        41.250    25264899.912 6 103455551.665 6        38.000  
G26  22649235.670 7 119022553.564 7        42.250    22649237.970 7  92744830.938 7        43.000  
G29  20695191.702 8 108753978.904 8        49.250    20695190.582 9  84743349.354 9        54.000  
> 2021 11 07 00 17  0.0000000  0 11                     
G02  24029963.780 7 126278314.250 7        43.500    24029960.500 4  98398680.749 4        29.250  
G05  20490579.364 7 107678767.245 7        47.250    20490577.844 8  83905495.047 8        52.000  
G07  25549428.790 6 134263154.898 6        41.250    25549427.450 4 104620645.888 4        24.000  
G09  25284279.732 6 132869780.591 6        38.000    25284281.632 3 103534891.223 3        22.000  
G13  24060230.520 7 126437369.949 7        45.500    24060229.320 5  98522626.898 5        30.500  
G16  23902589.882 7 125608976.988 7        42.750    23902588.162 4  97877118.304 4        24.750  
G18  22066849.594 7 115962089.498 7        46.500    22066848.874 5  90360066.467 5        34.750  
G20  21569270.038 7 113347295.994 7        47.000    21569268.258 6  88322553.738 6        36.500  
G25  25309424.332 5 133001908.171 5        35.750    25309427.452 5 103637884.354 5        35.250  
G26  22651121.350 7 119032463.024 7        43.000    22651123.670 7  92752552.620 7        43.500  
G29  20709765.002 8 108830562.183 8        49.000    20709763.902 8  84803024.636 8        53.500  
> 2021 11 07 00 18  0.0000000  0  9                     
G02  24063882.380 7 126456557.578 7        43.500    24063879.100 4  98537571.621 4        28.500  
G05  20491859.464 8 107685494.497 8        48.250    20491858.024 8  83910737.093 8        52.500  
G07  25524429.210 6 134131781.326 6        39.500    25524427.890 3 104518276.877 3        22.500  
G13  24020543.660 7 126228814.260 7        46.000    24020542.340 4  98360116.003 4        29.000  
G16  23874277.622 7 125460195.362 7        42.000    23874275.882 4  97761184.652 4        24.250  
G18  22033991.054 7 115789416.787 7        46.250    22033990.294 5  90225516.308 5        35.000  
G20  21594352.076 7 113479102.917 7        47.500    21594350.276 6  88425260.421 6        36.500  
G26  22653471.250 7 119044811.981 7        42.500    22653473.590 7  92762175.197 7        43.250  
G29  20724759.402 8 108909358.444 8        48.500    20724758.322 8  84864424.312 8        53.000  
> 2021 11 07 00 19  0.0000000  0  9                     
G02  24097901.560 6 126635329.494 6        41.750    24097898.300 4  98676874.413 4        27.250  
G05  20493606.784 8 107694676.584 8        49.500    20493605.324 8  83917891.955 8        53.750  
G07  25499696.350 6 134001809.198 6        39.500    25499695.010 4 104416999.864 4        24.750  
G13  23981026.502 7 126021150.175 7        44.250    23981025.002 4  98198299.847 4        25.000  
G16  23846336.602 6 125313364.511 6        41.000    23846334.842 4  97646771.051 4        24.500  
G18  22001340.874 7 115617838.891 7        47.000    22001340.074 5  90091819.263 5        35.750  
G20  21619756.616 7 113612604.516 7        47.000    21619754.796 6  88529287.624 6        36.500  
G26  22656283.850 7 119059592.307 7        43.000    22656286.170 7  92773692.338 7        43.000  
G29  20740172.782 8 108990356.340 8        48.250    20740171.682 8  84927539.543 8        52.750  
> 2021 11 07 00 20  0.0000000  0  9                     
G02  24132021.740 7 126814632.080 7        42.750    24132018.480 4  98816590.679 4        28.750  
G05  20495822.344 8 107706319.173 8        49.500    20495820.844 8  83926964.082 8        53.750  
G07  25475235.452 6 133873266.346 6        41.000    25475234.152 3 104316836.560 3        23.750  
G13  23941685.722 6 125814413.175 6        41.750    23941684.162 3  98037206.064 3        19.250  
G16  23818772.562 6 125168514.768 6        41.250    23818770.742 4  97533901.199 4        24.250  
G18  21968903.254 7 115447377.952 7        47.000    21968902.434 6  89958992.550 6        36.250  
G20  21645482.616 7 113747795.506 7        46.750    21645480.816 6  88634631.244 6        36.250  
G26  22659560.410 7 119076810.807 7        43.500    22659562.730 7  92787109.361 7        43.000  
G29  20756005.742 8 109073559.224 8        48.000    20756004.662 8  84992372.952 8        52.500  
> 2021 11 07 00 21  0.0000000  0  9                     
G02  24166240.460 6 126994452.554 6        36.000    24166237.200 3  98956710.430 3        23.000  
G05  20498504.284 7 107720412.771 7        44.250    20498502.764 8  83937946.110 8        50.500  
G07  25451049.112 6 133746166.214 6        36.500    25451047.812 3 104217797.459 3        20.500  
G13  23902525.402 5 125608624.307 5        33.250                                                  
G16  23791588.462 6 125025661.742 6        37.500    23791586.642 3  97422587.266 3        21.000  
G18  21936679.554 7 115278041.108 7        42.000    21936678.694 5  89827041.772 5        32.000  
G20  21671526.096 6 113884654.862 6        41.750    21671524.296 5  88741274.900 5        32.750  
G26  22663299.310 6 119096458.953 6        38.250    22663301.610 6  92802419.621 6        39.250  
G29  20772256.102 7 109158955.356 7        43.750    20772255.002 8  85058915.377 8        50.500  
> 2021 11 07 00 22  0.0000000  0  8                     
G02  24200556.080 6 127174782.225 6        37.000    24200552.840 4  99097227.078 4        24.000  
G05  20501651.684 7 107736952.538 7        44.000    20501650.204 8  83950834.263 8        50.250  
G07  25427140.692 6 133620526.561 6        37.000    25427139.432 3 104119896.373 3        20.500  
G16  23764787.902 6 124884824.159 6        38.250    23764786.022 3  97312843.741 3        21.750  
G18  21904671.934 7 115109840.025 7        42.000    21904671.074 5  89695976.009 5        32.000  
G20  21697883.816 7 114023165.644 7        43.000    21697882.036 5  88849205.368 5        33.250  
G26  22667499.710 6 119118532.259 6        38.500    22667502.010 6  92819619.608 6        39.750  
G29  20788922.502 7 109246537.790 7        45.000    20788921.402 8  85127161.409 8        51.000  
> 2021 11 07 00 23  0.0000000  0  9                     
G02  24234967.200 6 127355613.742 6        39.000    24234963.980 4  99238134.702 4        25.250  
G05  20505263.324 7 107755931.858 7        46.000    20505261.844 8  83965623.347 8        51.000  
G07  25403513.512 6 133496364.800 6        37.250    25403512.252 3 104023147.041 3        20.500  
G13  23824765.302 6 125200027.603 6        36.250    23824764.162 3  97558435.757 3        19.750  
G16  23738374.582 6 124746021.551 6        39.250    23738372.682 3  97204685.802 3        22.750  
G18  21872882.676 7 114942786.407 7        42.750    21872881.816 5  89565804.373 5        33.000  
G20  21724552.796 7 114163311.975 7        43.750    21724551.016 5  88958410.280 5        33.500  
G26  22672160.690 6 119143025.880 6        41.000    22672162.990 6  92838705.544 6        41.500  
G29  20806003.342 7 109336298.139 7        46.000    20806002.262 8  85197104.514 8        51.500  
> 2021 11 07 00 24  0.0000000  0  9                     
G02  24269471.420 6 127536934.474 6        41.500    24269468.220 4  99379423.537 4        27.000  
G05  20509337.564 8 107777342.068 8        50.000    20509336.084 8  83982306.620 8        53.500  
G07  25380170.172 6 133373694.649 6        40.750    25380168.932 4 103927559.901 4        24.250  
G13  23786175.042 7 124997233.128 7        42.500    23786173.862 4  97400414.143 4        27.250  
G16  23712351.342 6 124609268.647 6        41.500    23712349.422 4  97098125.148 4        25.250  
G18  21841313.316 7 114776888.324 7        47.000    21841312.476 6  89436533.138 6        36.500  
G20  21751529.116 7 114305073.514 7        47.250    21751527.336 6  89068873.828 6        36.250  
G26  22677280.550 7 119169930.981 7        43.000    22677282.830 7  92859670.576 7        43.500  
G29  20823496.502 8 109428225.220 8        49.250    20823495.422 8  85268735.994 8        53.750  
> 2021 11 07 00 25  0.0000000  0  9                     
G02  24304068.958 6 127718745.611 6        40.500    24304065.758 4  99521094.510 4        26.000  
G05  20513874.904 8 107801185.761 8        50.750    20513873.364 9  84000886.103 9        54.000  
G07  25357115.612 6 133252542.127 6        41.750    25357114.372 3 103833155.370 3        22.750  
G13  23747785.482 7 124795494.318 7        44.500    23747784.142 4  97243215.112 4        28.750  
G16  23686723.782 7 124474595.120 7        42.250    23686721.862 4  96993184.777 4        25.250  
G18  21809967.836 7 114612166.707 7        47.000    21809967.016 6  89308178.637 6        36.500  
G20  21778811.496 7 114448443.386 7        45.750    21778809.736 6  89180590.583 6        36.250  
G26  22682859.990 7 119199251.291 7        43.500    22682862.270 7  92882517.557 7        43.750  
G29  20841402.222 8 109522320.243 8        49.750    20841401.122 9  85342056.775 9        54.000  
> 2021 11 07 00 26  0.0000000  0  9                     
G02  24338757.578 7 127901035.358 7        42.500    24338754.398 4  99663138.465 4        27.750  
G05  20518873.424 8 107827452.877 8        50.750    20518871.844 9  84021353.965 9        54.000  
G07  25334352.732 6 133132922.479 6        39.500    25334351.472 4 103739945.294 4        24.750  
G13  23709600.922 7 124594833.361 7        43.750    23709599.582 4  97086855.955 4        29.250  
G16  23661494.504 7 124342014.580 7        42.750    23661492.604 4  96889875.402 4        26.750  
G18  21778847.756 7 114448629.646 7        47.500    21778846.956 6  89180747.161 6        36.500  
G20  21806396.036 7 114593401.130 7        47.500    21806394.276 6  89293544.669 6        36.500  
G26  22688897.250 7 119230977.262 7        45.000    22688899.530 7  92907239.095 7        44.500  
G29  20859718.242 8 109618571.331 8        49.500    20859717.122 8  85417057.622 8        53.750  
> 2021 11 07 00 27  0.0000000  0 10                     
G02  24373535.378 7 128083793.836 7        42.000    24373532.218 4  99805547.611 4        26.500  
G05  20524331.284 8 107856133.910 8        50.750    20524329.664 8  84043702.805 8        53.500  
G07  25311884.152 6 133014849.363 6        40.750    25311882.872 4 103647940.230 4        24.000  
G13  23671626.004 7 124395273.938 7        44.000    23671624.464 4  96931355.161 4        28.500  
G15  24316161.518 6 127782285.601 6        40.500    24316160.498 6  99570612.201 6        39.000  
G16  23636666.784 7 124211544.141 7        43.000    23636664.844 4  96788210.270 4        26.500  
G18  21747955.036 8 114286287.262 8        48.250    21747954.196 6  89054246.579 6        36.750  
G20  21834279.196 7 114739928.135 7        46.500    21834277.456 6  89407721.544 6        36.250  
G26  22695390.810 7 119265100.866 7        44.750    22695393.010 7  92933828.933 7        44.000  
G29  20878442.562 8 109716968.189 8        48.750    20878441.442 8  85493730.468 8        53.000  
> 2021 11 07 00 28  0.0000000  0 11                     
G02  24408401.538 6 128267016.541 6        39.000    24408398.378 4  99948318.484 4        25.000  
G05  20530248.044 8 107887226.570 8        50.500    20530246.404 8  84067930.846 8        53.250  
G07  25289713.692 6 132898342.843 6        41.500    25289712.392 3 103557155.935 3        23.500  
G13  23633866.144 7 124196844.648 7        42.750    23633864.484 4  96776734.974 4        26.750  
G15  24271460.940 7 127547384.398 7        42.250    24271460.220 6  99387572.373 6        41.000  
G16  23612244.664 7 124083205.425 7        42.750    23612242.724 4  96688206.111 4        27.000  
G18  21717292.536 8 114125154.666 8        48.500    21717291.676 6  88928688.696 6        37.000  
G20  21862458.416 7 114888010.902 7        47.250    21862456.676 6  89523110.706 6        36.500  
G23  25162057.394 6 132227507.413 6        41.500    25162058.254 4 103034421.201 4        25.500  
G26  22702339.970 7 119301619.067 7        43.750    22702342.170 7  92962284.679 7        43.250  
G29  20897574.002 8 109817504.627 8        48.750    20897572.902 8  85572070.529 8        52.750  
> 2021 11 07 00 29  0.0000000  0 11                     
G02  24443352.978 7 128450687.359 7        42.250    24443349.818 4 100091438.637 4        26.750  
G05  20536620.804 8 107920715.608 8        49.000    20536619.164 8  84094026.198 8        52.750  
G07  25267843.232 7 132783412.766 7        42.000    25267841.932 4 103467600.012 4        26.250  
G13  23596324.784 6 123999563.785 6        41.500    23596323.104 4  96623009.677 4        24.750  
G15  24226849.260 7 127312949.741 7        43.750    24226848.620 6  99204896.031 6        41.500  
G16  23588230.124 6 123957008.581 6        41.750    23588228.164 4  96589870.955 4        26.500  
G18  21686861.056 8 113965236.009 8        48.000    21686860.176 6  88804076.743 6        36.750  
G20  21890929.154 7 115037625.558 7        47.250    21890927.414 6  89639693.515 6        36.500  
G23  25117459.614 6 131993144.513 6        41.250    25117460.214 4 102851800.882 4        26.000  
G26  22709742.030 7 119340517.194 7        44.500    22709744.210 7  92992594.906 7        43.250  
G29  20917109.582 8 109920164.777 8        48.750    20917108.482 8  85652065.436 8        52.750  
> 2021 11 07 00 30  0.0000000  0 11                     
G02  24478390.338 7 128634809.787 7        42.000    24478387.198 4 100234910.593 4        27.250  
G05  20543450.004 8 107956603.409 8        48.750    20543448.384 8  84121990.720 8        52.250  
G07  25246277.972 7 132670086.484 7        42.750    25246276.672 4 103379293.841 4        25.500  
G13  23559008.864 6 123803467.761 6        41.000    23559007.204 4  96470207.618 4        24.250  
G15  24182333.220 7 127079016.385 7        44.750    24182332.420 6  99022610.297 6        41.000  
G16  23564628.704 7 123832982.560 7        43.250    23564626.744 4  96493227.357 4        27.000  
G18  21656664.896 7 113806554.149 7        47.750    21656664.016 6  88680428.545 6        36.500  
G20  21919690.294 7 115188766.272 7        47.000    21919688.574 6  89757465.505 6        36.750  
G23  25072898.754 5 131758975.166 5        35.000    25072898.974 3 102669331.394 3        21.500  
G26  22717597.690 7 119381799.034 7        42.750    22717599.850 7  93024762.584 7        42.500  
G29  20937049.462 8 110024949.509 8        48.750    20937048.382 8  85733715.863 8        53.000  
> 2021 11 07 00 31  0.0000000  0 11                     
G02  24513511.258 6 128819371.356 6        40.500    24513508.118 4 100378724.758 4        25.500  
G05  20550733.464 8 107994878.462 8        49.000    20550731.884 8  84151815.431 8        52.500  
G07  25225020.232 6 132558376.435 6        41.750    25225018.952 4 103292247.135 4        26.000  
G13  23521922.484 7 123608577.942 7        42.250    23521920.864 4  96318345.470 4        25.750  
G15  24137916.420 7 126845603.974 7        43.250    24137915.440 6  98840730.439 6        39.500  
G16  23541442.884 7 123711140.664 7        42.000    23541440.924 4  96398285.655 4        26.500  
G18  21626705.536 7 113649116.678 7        47.500    21626704.676 6  88557749.998 6        36.750  
G20  21948737.894 7 115341412.238 7        47.000    21948736.154 6  89876410.404 6        36.250  
G23  25028376.474 6 131525009.626 6        37.750    25028376.634 4 102487020.858 4        24.000  
G26  22725904.690 7 119425452.708 7        43.750    22725906.850 7  93058778.451 7        42.500  
G29  20957391.042 8 110131845.244 8        48.750    20957389.982 8  85817011.226 8        53.000  
> 2021 11 07 00 32  0.0000000  0 11                     
G02  24548713.958 6 129004362.683 6        40.750    24548710.838 4 100522873.791 4        27.000  
G05  20558469.364 8 108035530.928 8        49.000    20558467.804 8  84183492.681 8        53.000  
G07  25204072.812 6 132448297.005 6        40.750    25204071.492 3 103206470.882 3        23.000  
G13  23485070.064 7 123414917.439 7        43.750    23485068.444 4  96167441.206 4        27.750  
G15  24093603.200 6 126612736.313 6        38.250    24093602.180 5  98659275.127 5        35.250  
G16  23518675.664 7 123591498.452 7        42.750    23518673.724 4  96305057.985 4        26.750  
G18  21596984.916 7 113492933.826 7        47.750    21596984.056 6  88436049.093 6        37.500  
G20  21978068.334 7 115495544.612 7        47.500    21978066.574 6  89996513.550 6        36.250  
G23  24983895.494 6 131291261.215 6        41.250    24983895.534 4 102304879.360 4        27.000  
G26  22734661.210 7 119471468.597 7        42.250    22734663.370 7  93094635.000 7        42.250  
G29  20978132.302 8 110240841.332 8        48.750    20978131.262 8  85901943.227 8        53.000  
> 2021 11 07 00 33  0.0000000  0 11                     
G02  24583997.236 7 129189777.458 7        42.000    24583994.156 4 100667352.738 4        28.000  
G05  20566656.304 8 108078553.585 8        49.500    20566654.764 8  84217016.836 8        53.500  
G07  25183439.072 6 132339865.949 6        41.750    25183437.772 4 103121979.125 4        24.000  
G13  23448456.904 7 123222514.126 7        44.500    23448455.284 4  96017516.568 4        28.250  
G15  24049398.520 6 126380439.362 6        36.250    24049397.560 5  98478264.687 5        35.000  
G16  23496330.604 7 123474074.582 7        42.250    23496328.684 4  96213558.882 4        27.000  
G18  21567505.618 8 113338018.986 8        48.500    21567504.738 6  88315336.216 6        38.250  
G20  22007678.854 7 115651148.855 7        46.500    22007677.094 5  90117763.585 5        35.750  
G23  24939458.894 7 131057745.966 7        43.250    24939458.694 4 102122919.497 4        27.250  
G26  22743865.950 7 119519839.985 7        42.750    22743868.130 7  93132326.984 7        42.500  
G29  20999271.500 8 110351928.436 8        48.750    20999270.440 8  85988504.602 8        52.750  
> 2021 11 07 00 34  0.0000000  0 11                     
G02  24619358.496 6 129375601.879 6        41.500    24619355.456 4 100812150.916 4        27.000  
G05  20575291.644 8 108123932.530 8        49.750    20575290.104 8  84252377.046 8        53.500  
G07  25163120.954 7 132233093.376 7        42.750    25163119.614 4 103038779.735 4        27.000  
G13  23412086.644 7 123031387.130 7        44.250    23412084.984 4  95868586.455 4        28.000  
G15  24005306.120 7 126148732.322 7        42.250    24005305.160 6  98297713.817 6        41.500  
G16  23474409.784 7 123358880.026 7        42.500    23474407.864 4  96123796.914 4        27.000  
G18  21538268.758 8 113184378.137 8        48.500    21538267.858 6  88195616.074 6        38.250  
G20  22037565.054 7 115808201.830 7        47.500    22037563.294 5  90240142.519 5        35.500  
G23  24895068.474 7 130824472.747 7        45.000    24895068.074 4 101941148.224 4        25.000  
G26  22753516.170 7 119570552.388 7        42.500    22753518.370 7  93171843.161 7        42.500  
G29  21020805.720 8 110465091.579 8        48.250    21020804.680 8  86076683.646 8        52.500  
> 2021 11 07 00 35  0.0000000  0 11                     
G02  24654798.336 6 129561839.082 6        41.500    24654795.276 4 100957270.815 4        26.500  
G05  20584375.484 8 108171668.413 8        49.500    20584373.944 8  84289573.828 8        53.250  
G07  25143123.434 6 132128005.802 6        40.750    25143122.154 3 102956893.419 3        23.000  
G13  23375966.166 7 122841572.958 7        43.250    23375964.506 4  95720679.329 4        26.750  
G15  23961332.662 7 125917650.217 7        45.250    23961331.642 7  98117649.860 7        44.000  
G16  23452918.424 7 123245942.188 7        43.500    23452916.484 4  96035793.432 4        27.500  
G18  21509278.598 8 113032033.831 8        48.250    21509277.718 6  88076906.233 6        38.500  
G20  22067725.734 7 115966697.226 7        46.500    22067723.974 5  90363645.423 5        35.000  
G23  24850728.876 6 130591466.924 6        41.750    24850728.356 2 101759585.257 2        16.500  
G26  22763612.190 7 119623607.492 7        43.250    22763614.410 7  93213184.814 7        43.250  
G29  21042734.920 8 110580330.368 8        48.250    21042733.900 8  86166480.085 8        52.500  
> 2021 11 07 00 36  0.0000000  0 11                     
G02  24690314.216 6 129748475.968 6        41.500    24690311.176 4 101102702.063 4        26.750  
G05  20593905.124 8 108221747.077 8        49.500    20593903.604 8  84328596.160 8        53.500  
G07  25123448.494 6 132024613.270 6        41.250    25123447.194 4 102876327.803 4        24.500  
G13  23340099.366 7 122653091.712 7        42.500    23340097.666 4  95573810.836 4        26.250  
G15  23917482.002 7 125687213.147 7        46.000    23917480.842 7  97938088.529 7        44.750  
G16  23431858.484 7 123135271.620 7        43.250    23431856.544 4  95949556.640 4        26.750  
G18  21480536.438 8 112880992.750 8        48.750    21480535.558 6  87959211.868 6        38.750  
G20  22098156.754 7 116126613.187 7        47.000    22098154.994 5  90488255.219 5        35.000  
G23  24806442.016 6 130358738.224 6        37.000    24806441.496 2 101578238.083 2        16.750  
G26  22774151.230 7 119678990.571 7        43.000    22774153.450 7  93256340.464 7        42.750  
G29  21065056.100 8 110697628.840 8        48.750    21065055.080 8  86257881.479 8        52.750  
> 2021 11 07 00 37  0.0000000  0 10                     
G02  24725904.476 6 129935503.853 6        40.750    24725901.456 4 101248437.974 4        25.500  
G05  20603878.564 8 108274157.787 8        49.500    20603877.044 8  84369435.684 8        53.250  
G07  25104099.054 6 131922931.290 6        41.750    25104097.714 3 102797095.062 3        23.250  
G13  23304490.846 7 122465967.882 7        43.250    23304489.166 4  95428000.093 4        27.500  
G15  23873758.682 7 125457445.507 7        45.000    23873757.442 7  97759048.845 7        43.750  
G16  23411233.064 7 123026884.471 7        43.000    23411231.124 4  95865099.159 4        26.750  
G18  21452044.458 8 112731266.363 8        48.500    21452043.598 6  87842541.942 6        38.500  
G20  22128854.914 7 116287932.978 7        47.000    22128853.154 5  90613958.932 5        34.750  
G26  22785131.428 7 119736692.035 7        43.000    22785133.628 7  93301302.677 7        43.000  
G29  21087767.120 8 110816975.916 8        48.750    21087766.100 8  86350879.199 8        53.000  
> 2021 11 07 00 38  0.0000000  0 11                     
G02  24761567.876 6 130122915.961 6        41.000    24761564.876 4 101394473.326 4        26.250  
G05  20614294.244 8 108328892.550 8        48.500    20614292.724 8  84412086.145 8        52.250  
G07  25085077.994 7 131822975.203 7        42.000    25085076.674 4 102719207.316 4        25.500  
G13  23269145.626 7 122280227.581 7        43.250    23269143.926 4  95283267.437 4        28.250  
G15  23830167.442 7 125228372.229 7        44.000    23830166.202 6  97580550.217 6        41.750  
G16  23391045.244 7 122920796.761 7        42.750    23391043.284 4  95782433.404 4        27.000  
G18  21423804.978 7 112582866.850 7        47.750    21423804.098 6  87726905.939 6        37.750  
G20  22159817.054 7 116450640.017 7        45.250    22159815.294 5  90740743.623 5        33.750  
G23  24718037.636 6 129894170.374 6        40.500    24718037.376 4 101216237.482 4        28.500  
G26  22796550.928 7 119796701.967 7        42.500    22796553.128 7  93348063.682 7        43.000  
G29  21110865.960 8 110938361.048 8        48.250    21110864.940 8  86445464.987 8        52.000  
> 2021 11 07 00 39  0.0000000  0 11                     
G02  24797301.936 6 130310699.467 6        40.750    24797298.976 4 101540798.037 4        26.250  
G05  20625149.104 7 108385935.434 7        47.500    20625147.604 8  84456535.141 8        51.500  
G07  25066387.254 6 131724754.751 6        39.000    25066385.894 3 102642671.877 3        22.250  
G13  23234067.426 7 122095890.556 7        43.250    23234065.726 4  95139628.209 4        29.250  
G15  23786712.182 6 125000013.606 6        41.750    23786710.962 6  97402608.423 6        37.750  
G16  23371296.846 7 122817018.334 7        42.500    23371294.886 4  95701567.135 4        26.500  
G18  21395819.238 7 112435800.849 7        46.750    21395818.378 6  87612309.065 6        37.000  
G20  22191038.872 7 116614711.738 7        45.000    22191037.132 5  90868591.706 5        33.250  
G23  24673924.876 7 129662356.389 7        42.500    24673924.876 5 101035603.305 5        31.750  
G26  22808406.748 7 119859004.877 7        42.750    22808408.968 7  93396611.404 7        42.500  
G29  21134349.360 7 111061767.132 7        47.500    21134348.360 8  86541625.555 8        51.500  
> 2021 11 07 00 40  0.0000000  0 11                     
G02  24833107.056 6 130498856.335 6        38.250    24833104.156 3 101687413.629 3        23.500  
G05  20636443.184 7 108445286.346 7        46.500    20636441.704 8  84502782.599 8        51.000  
G07  25048031.474 6 131628294.628 6        39.250    25048030.114 3 102567508.202 3        22.500  
G13  23199262.966 6 121912991.966 6        41.750    23199261.266 4  94997109.829 4        28.000  
G15  23743399.662 6 124772404.909 6        37.750    23743398.442 5  97225250.969 5        33.750  
G16  23351992.726 6 122715574.512 6        41.000    23351990.746 4  95622520.045 4        25.500  
G18  21368091.438 7 112290090.258 7        46.000    21368090.598 6  87498768.335 6        36.500  
G20  22222519.172 7 116780141.726 7        42.750    22222517.432 5  90997498.190 5        31.750  
G23  24629877.116 7 129430883.937 7        42.500    24629877.196 5 100855235.191 5        32.500  
G26  22820698.828 6 119923600.207 6        41.500    22820701.028 6  93446945.445 6        41.750  
G29  21158217.140 7 111187193.097 7        45.750    21158216.140 8  86639360.051 8        50.500  
> 2021 11 07 00 41  0.0000000  0 10                     
G02  24868980.896 5 130687374.266 5        34.250    24868977.996 3 101834310.669 3        20.250  
G05  20648173.364 7 108506928.903 7        42.000    20648171.904 8  84550815.768 8        48.250  
G07  25030012.594 6 131533604.869 6        36.250    25030011.214 3 102493723.993 3        21.500  
G13  23164735.966 6 121731551.424 6        37.250    23164734.266 3  94855727.634 3        23.750  
G16  23333134.646 6 122616474.809 6        37.750    23333132.666 3  95545299.522 3        22.500  
G18  21340622.818 7 112145741.641 7        42.000    21340621.978 5  87386288.916 5        34.000  
G20  22254253.772 6 116946908.141 6        39.750    22254252.032 4  91127446.020 4        28.250  
G23  24585896.136 6 129199762.551 6        36.750    24585896.216 4 100675140.727 4        26.750  
G26  22833424.028 6 119990471.592 6        37.500    22833426.208 6  93499053.028 6        38.750  
G29  21182466.100 7 111314622.168 7        42.250    21182465.120 7  86738655.413 7        47.750  
> 2021 11 07 00 42  0.0000000  0 11                     
G02  24904921.914 6 130876245.286 6        41.250    24904919.054 4 101981482.765 4        26.500  
G05  20660337.604 8 108570852.500 8        48.250    20660336.184 8  84600626.359 8        52.250  
G07  25012333.234 6 131440699.397 6        41.000    25012331.854 3 102421330.186 3        22.500  
G13  23130491.206 7 121551594.120 7        42.750    23130489.506 4  94715501.203 4        28.250  
G15  23657217.484 6 124319496.713 6        39.250    23657218.704 6  96872338.113 6        39.250  
G16  23314725.426 7 122519733.726 7        42.750    23314723.406 4  95469916.905 4        27.750  
G18  21313415.618 8 112002766.795 8        48.250    21313414.758 6  87274879.945 6        38.750  
G20  22286239.352 7 117114993.438 7        45.250    22286237.612 5  91258421.568 5        32.750  
G23  24541984.818 6 128969007.304 6        38.000    24541984.858 4 100495331.507 4        26.250  
G26  22846580.228 7 120059607.868 7        42.500    22846582.388 7  93552925.464 7        42.250  
G29  21207094.020 8 111444042.598 8        48.250    21207093.040 8  86839502.470 8        51.750  
> 2021 11 07 00 43  0.0000000  0 11                     
G02  24940928.634 6 131065461.443 6        41.250    24940925.794 4 102128923.878 4        25.500  
G05  20672933.744 8 108637045.699 8        48.750    20672932.344 8  84652205.482 8        52.250  
G07  24994996.114 6 131349592.427 6        41.500    24994994.714 4 102350337.770 4        25.250  
G13  23096533.386 7 121373144.721 7        43.500    23096531.686 4  94576449.753 4        29.250  
G15  23614359.124 7 124094272.990 7        42.500    23614359.924 7  96696839.145 7        43.750  
G16  23296767.706 7 122425365.431 7        43.500    23296765.686 4  95396383.224 4        28.000  
G18  21286472.038 8 111861177.179 8        49.000    21286471.158 6  87164550.360 6        39.250  
G20  22318472.712 7 117284380.901 7        45.750    22318470.992 5  91390411.779 5        33.000  
G23  24498145.918 6 128738632.742 6        37.750    24498145.958 3 100315818.976 3        19.750  
G26  22860165.128 7 120130997.057 7        42.250    22860167.268 6  93608553.420 6        41.500  
G29  21232098.480 8 111575441.851 8        48.500    21232097.520 8  86941891.466 8        52.000  
> 2021 11 07 00 44  0.0000000  0 11                     
G02  24976998.674 6 131255010.515 6        40.500    24976995.874 4 102276624.383 4        24.000  
G05  20685958.722 8 108705492.573 8        48.250    20685957.322 8  84705540.696 8        51.750  
G07  24978002.954 6 131260292.871 6        41.750    24978001.534 4 102280753.701 4        25.500  
G13  23062866.408 7 121196223.775 7        44.250    23062864.728 5  94438589.308 5        30.500  
G15  23571660.984 7 123869890.149 7        45.500    23571661.224 7  96521995.403 7        46.000  
G16  23279263.146 7 122333378.615 7        43.750    23279261.146 4  95324705.194 4        28.000  
G18  21259793.400 8 111720979.946 8        48.500    21259792.500 6  87055305.752 6        39.000  
G20  22350949.752 7 117455048.953 7        44.500    22350948.072 5  91523399.859 5        32.500  
G23  24454381.438 6 128508649.286 6        41.000                                                  
G26  22874175.588 6 120204622.640 6        41.500    22874177.728 6  93665923.989 6        40.750  
G29  21257476.160 8 111708802.255 8        48.500    21257475.180 8  87045808.643 8        52.000  
> 2021 11 07 00 45  0.0000000  0 11                     
G02  25013132.434 6 131444894.526 6        40.750    25013129.674 4 102424585.861 4        25.500  
G05  20699412.182 8 108776191.077 8        48.500    20699410.802 8  84760630.439 8        52.500  
G07  24961358.114 6 131172823.854 6        41.250    24961356.694 4 102212596.035 4        26.500  
G13  23029496.568 7 121020864.232 7        44.250    23029494.908 5  94301945.517 5        30.750  
G15  23529129.124 7 123646382.801 7        46.000    23529129.124 7  96347833.840 7        45.000  
G16  23262216.206 7 122243796.498 7        43.500    23262214.186 4  95254900.978 4        28.500  
G18  21233383.740 8 111582196.177 8        48.250    21233382.840 6  86947162.556 6        38.500  
G20  22383669.112 7 117626990.387 7        45.000    22383667.452 5  91657380.183 5        32.500  
G23  24410696.098 7 128279081.535 7        43.500    24410694.798 3  99957727.038 3        21.250  
G26  22888611.048 6 120280481.657 6        41.500    22888613.208 6  93725034.903 6        41.000  
G29  21283226.460 8 111844120.750 8        48.500    21283225.480 8  87151251.610 8        52.000  
> 2021 11 07 00 46  0.0000000  0 11                     
G02  25049327.494 6 131635100.580 6        38.250    25049324.774 3 102572798.225 3        23.750  
G05  20713290.962 8 108849124.597 8        49.000    20713289.642 8  84817461.750 8        52.500  
G07  24945063.394 6 131087194.633 6        40.750    24945062.014 4 102145872.020 4        25.500  
G13  22996427.668 7 120847086.197 7        43.750    22996426.028 4  94166534.079 4        29.500  
G15  23486767.664 7 123423771.735 7        45.250    23486767.604 7  96174370.683 7        45.000  
G16  23245628.426 7 122156627.247 7        43.250    23245626.426 4  95186976.910 4        28.500  
G18  21207244.320 7 111444832.627 7        47.750    21207243.420 6  86840126.030 6        38.500  
G20  22416626.532 7 117800182.864 7        44.500    22416624.892 5  91792335.352 5        32.250  
G23  24367091.838 7 128049939.508 7        45.000    24367091.438 4  99779174.858 4        29.250  
G26  22903468.188 6 120358556.544 6        41.500    22903470.368 6  93785872.474 6        40.750  
G29  21309345.998 8 111981379.644 8        48.500    21309344.998 8  87258206.568 8        52.000  
> 2021 11 07 00 47  0.0000000  0 11                     
G02  25085582.474 6 131825621.341 6        41.000    25085579.794 4 102721255.883 4        25.750  
G05  20727592.662 8 108924280.533 8        48.750    20727591.302 8  84876024.796 8        52.250  
G07  24929121.154 6 131003417.880 6        40.500    24929119.794 4 102080591.448 4        26.500  
G13  22963664.448 7 120674914.525 7        43.000    22963662.808 4  94032374.365 4        28.500  
G15  23444581.484 7 123202082.096 7        43.250    23444581.444 7  96001625.557 7        44.500  
G16  23229502.206 7 122071883.544 7        42.750    23229500.206 4  95120942.833 4        28.250  
G18  21181377.360 7 111308900.898 7        47.750    21181376.480 6  86734205.206 6        38.500  
G20  22449818.812 7 117974609.578 7        44.750    22449817.212 5  91928252.261 5        32.000  
G23  24323571.478 7 127821238.186 7        45.500    24323571.258 5  99600966.096 5        32.000  
G26  22918744.568 7 120438834.402 7        42.750    22918746.728 7  93848426.643 7        42.250  
G29  21335832.358 8 112120566.266 8        48.500    21335831.358 8  87366663.655 8        51.750  
> 2021 11 07 00 48  0.0000000  0 11                     
G02  25121895.834 6 132016448.897 6        41.000    25121893.194 3 102869952.535 3        23.000  
G05  20742314.922 8 109001646.434 8        49.250    20742313.522 8  84936309.905 8        52.500  
G07  24913533.834 6 130921506.139 6        41.750    24913532.514 4 102016764.158 4        26.500  
G13  22931211.368 7 120504372.688 7        42.750    22931209.748 4  93899484.630 4        28.500  
G15  23402575.404 6 122981338.940 6        41.250    23402575.384 7  95829617.960 7        42.000  
G16  23213839.966 7 121989577.996 7        43.250    23213838.006 4  95056808.642 4        28.500  
G18  21155785.000 7 111174412.201 7        47.750    21155784.120 6  86629408.819 6        38.500  
G20  22483242.812 7 118150253.912 7        45.250    22483241.232 5  92065117.938 5        31.750  
G23  24280137.720 7 127592992.134 7        44.250    24280137.420 5  99423112.107 5        31.000  
G26  22934437.548 7 120521301.551 7        43.750    22934439.708 7  93912686.766 7        43.000  
G29  21362682.958 8 112261666.940 8        48.500    21362681.978 8  87476612.200 8        51.750  
> 2021 11 07 00 49  0.0000000  0 11                     
G02  25158265.194 6 132207570.559 6        40.000    25158262.554 4 103018878.466 4        24.750  
G05  20757454.322 8 109081204.395 8        49.750    20757452.922 8  84998303.111 8        53.250  
G07  24898302.854 6 130841466.870 6        40.750    24898301.514 4 101954395.852 4        26.000  
G13  22899072.108 7 120335479.826 7        44.750    22899070.508 5  93767879.831 5        30.750  
G15  23360753.266 6 122761562.510 6        40.500    23360753.246 6  95658363.659 6        39.500  
G16  23198642.946 7 121909717.227 7        43.750    23198641.006 4  94994579.523 4        28.750  
G18  21130468.460 7 111041372.978 7        47.750    21130467.600 6  86525741.900 6        38.750  
G20  22516894.210 7 118327093.171 7        44.250    22516892.650 5  92202914.760 5        31.750  
G23  24236792.440 6 127365211.247 6        41.750    24236792.060 4  99245620.591 4        29.250  
G26  22950543.628 7 120605939.341 7        44.000    22950545.748 7  93978638.318 7        43.250  
G29  21389894.238 8 112404662.927 8        48.250    21389893.258 8  87588037.617 8        51.750  
> 2021 11 07 00 50  0.0000000  0 11                     
G02  25194691.012 7 132398989.010 7        42.250    25194688.432 4 103168035.506 4        27.250  
G05  20773010.462 8 109162952.349 8        50.250    20773009.122 8  85062002.826 8        53.500  
G07  24883432.654 6 130763323.394 6        40.500    24883431.294 4 101893504.768 4        26.000  
G13  22867253.188 7 120168270.370 7        45.250    22867251.608 5  93637586.763 5        32.000  
G15  23319122.106 7 122542789.472 7        43.000    23319122.026 7  95487891.190 7        42.000  
G16  23183915.326 7 121832323.109 7        43.000    23183913.406 4  94934272.414 4        28.750  
G18  21105431.920 8 110909805.167 8        48.500    21105431.080 6  86423221.531 6        39.000  
G20  22550771.850 7 118505121.300 7        45.000    22550770.310 5  92341637.926 5        31.750  
G23  24193540.500 6 127137921.008 6        38.250    24193540.100 4  99068511.438 4        25.250  
G26  22967062.068 7 120692744.400 7        43.500    22967064.188 7  94046278.644 7        43.250  
G29  21417465.658 8 112549551.557 8        48.500    21417464.698 8  87700937.816 8        51.750  
> 2021 11 07 00 51  0.0000000  0 11                     
G02  25231170.812 6 132590691.101 6        39.750    25231168.272 3 103317413.546 3        22.250  
G05  20788979.862 8 109246871.886 8        50.000    20788978.502 8  85127394.676 8        52.750  
G07  24868924.536 6 130687082.706 6        40.000    24868923.196 4 101834096.465 4        24.000  
G13  22835758.048 7 120002762.400 7        45.000    22835756.488 5  93508619.538 5        32.000  
G15  23277685.546 7 122325038.887 7        44.250    23277685.366 7  95318215.445 7        44.750  
G16  23169658.186 7 121757401.540 7        44.000    23169656.286 4  94875892.026 4        29.000  
G18  21080676.500 8 110779714.370 8        48.500    21080675.620 6  86321852.073 6        39.750  
G20  22584871.470 7 118684315.970 7        43.500    22584869.950 5  92481270.109 5        31.750  
G23  24150383.640 6 126911130.546 6        40.500    24150383.240 4  98891791.743 4        26.250  
G26  22983989.128 7 120781696.556 7        43.750    22983991.208 7  94115592.052 7        43.250  
G29  21445393.418 8 112696312.808 8        48.000    21445392.478 8  87815297.208 8        51.500  
> 2021 11 07 00 52  0.0000000  0 11                     
G02  25267703.272 6 132782669.880 6        41.000    25267700.792 4 103467007.316 4        24.000  
